siteID	name	address	cp	city	phone	lat	lng	email	prov	prov_abbr	open	opening_date	company_iban	company_bizum	company_phone	company_email	company_cif	company_name	company_address	services	schedule_rest	schedule_rest_week	schedule_rest_weekend	schedule_rest_sunday	schedule_rest_festive	schedule_mcexpress	schedule_mcexpress_week	schedule_mcexpress_weekend	schedule_mcexpress_sunday	schedule_mcexpress_festive	schedule_mcauto	schedule_mcauto_week	schedule_mcauto_weekend	schedule_mcauto_sunday	schedule_mcauto_festive	schedule_24h
534	La Coruña La Grela	C/ Severo Ochoa, nº 6 | Poligono La Grela	15008	La Coruña	981101177	43.349708	-8.420525	corunalagrela.534@es.mcd.com	La Coruña	C	true	false	false	false	false	false				McAuto|McCafé|Desayunos|Parking|Terraza|Delivery	true	10:00-00:00	10:00-00:00	10:00-00:00	10:00-00:00	false	false	false	false	false	true	10:00-01:00	10:00-01:00	10:00-01:00	10:00-01:00	false
797	Coruña Marineda	Carretera Baños de Arteixo, nº 43 A Coruña	15008	La Coruña	981632442	43.34436	-8.428445	corunamarineda.797@es.mcd.com	La Coruña	C	true	false	false	false	false	false				Parking|Delivery	true	12:00-23:00	12:00-00:00	12:00-23:00	12:00-23:00	false	false	false	false	false	false	false	false	false	false	false
599	Coruña Perillo	Avda. Das Mariñas (N-VI) | cruce calle Pegaso 2; Oleiros- A Coruña	15172	Perillo	682342558	43.32701	-8.363801	corunaperillo.599@es.mcd.com	La Coruña	C	true	false	false	false	false	false				McAuto|McCafé|Desayunos|Parking|Terraza|Delivery	true	10:00-00:00	10:00-00:00	10:00-00:00	10:00-00:00	false	false	false	false	false	true	10:00-01:00	10:00-01:00	10:00-01:00	10:00-01:00	false
348	Ferrol	Polígono Ind. "Ensenada de la Gándara" | Avda Nicasio Pérez, s/n	15407	Ferrol	650837341	43.488	-8.20214		La Coruña	C	true	false	false	false	false	false				McAuto|McCafé|Desayunos|Parking|Terraza|Servicio a mesa|Delivery	true	10:00-00:00	10:00-00:00	10:00-00:00	10:00-00:00	false	false	false	false	false	true	10:00-01:00	10:00-01:00	10:00-01:00	10:00-01:00	false
332	Santiago	Plaza de España, s/n	15703	Santiago de Compostela	981554132	42.8918	-8.53285	santiagofs.332@es.mcd.com	La Coruña	C	true	false	false	false	false	false				McAuto|Desayunos|Parking|Terraza|Servicio a mesa|Ticket|Delivery|Descuento familias numerosas|24H|Para llevar	true	08:00-00:00	08:00-00:00	08:00-00:00	08:00-00:00	false	false	false	false	false	true	00:00-00:00	00:00-00:00	00:00-00:00	00:00-00:00	all
446	Lugo	Centro Comercial "As Termas" | Avda. Infanta Elena | Duquesa de Lugo, s/n	27003	Lugo	982219990	43.038187	-7.568421	lugo.446@es.mcd.com	Lugo	LU	true	false	false	false	false	false				Parking|Terraza|Minusválidos|Ticket|Delivery|Descuento familias numerosas|Para llevar	true	12:30-23:00	12:30-23:30	13:00-23:00	12:30-23:30	false	false	false	false	false	false	false	false	false	false	false
784	Lugo Universidad	Avenida de Madrid, s/n	27002	Lugo	982257300	42.997466	-7.545157	lugouniversidad.784@es.mcd.com	Lugo	LU	true	false	false	false	false	false				McAuto|McCafé|Play Place|Parking|Terraza|Minusválidos|Cumpleaños|Ticket|Delivery|Descuento familias numerosas|Para llevar	true	12:00-00:00	12:00-00:00	12:00-00:00	12:00-00:00	false	false	false	false	false	true	12:00-00:00	12:00-00:00	12:00-00:00	12:00-00:00	
368	McDonald's Villagarcia	Puerto Deportivo, s/n	36600	Villagarcía de Arousa	986500042	42.5983	-8.76774	villagarcia.368@es.mcd.com	Pontevedra	PO	true	false	false	false	986500042	villagarcia.368@es.mcd.com	B-36599504	Tritatra Restauración SLU	B36599504	McAuto|Terraza|Minusválidos|Cumpleaños|Ticket|Descuento familias numerosas|Para llevar|Cumpleaños en casa	true	12:30-00:00	12:30-00:00	12:30-00:00	12:30-00:00	false	false	false	false	false	true	12:30-02:00	12:30-03:00	12:30-02:00	12:30-02:00	
23	Palma Pío XII	Plaza Juan Carlos I, nº 7	07012	Palma de Mallorca	971718485	39.5712	2.64731	palmapioxII.23@es.mcd.com	Islas Baleares	PM	true	false	false	false	false	false				McCafé|Desayunos|Terraza|Delivery|Para llevar	true	09:00-00:00	10:00-00:00	10:00-00:00	10:00-00:00	false	false	false	false	false	false	false	false	false	false	false
405	Palma Avenidas	C/ Nuredduna, nº1 - Bajos	07006	Palma de Mallorca	971468398	39.5729	2.65732	palmaavenidas.405@es.mcd.com	Islas Baleares	PM	true	false	false	false	false	false	B57948044	Good&Fast Mallorca Avenidas 	Nuredduna 1	McCafé|Terraza|Signature|Minusválidos|Ticket|Delivery|Descuento familias numerosas|Para llevar	true	11:30-00:00	11:30-00:00	11:30-00:00	11:30-00:00	false	false	false	false	false	false	false	false	false	false	false
739	Palma Plaza España	Plaza España, nº 3	07002	Palma de Mallorca	971853951	39.576033	2.652946	palmaplazaespana.739@es.mcd.com	Islas Baleares	PM	true	false	false	false	false	false	B16527749	Good&Fast Mallorca Plaza SLU	PLAZA DE ESPAÑA 3	McCafé|Desayunos|Terraza|Signature|Minusválidos|Cumpleaños|Ticket|Delivery|Descuento familias numerosas|Para llevar	true	09:00-23:30	09:00-23:30	09:00-23:30	09:00-23:30	false	false	false	false	false	false	false	false	false	false	false
307	Son Rapinya	Centro Comercial Centro Parc | Camí de Son Rapinya, s/n	07013	Palma de Mallorca	971222003	39.5799	2.62457		Islas Baleares	PM	true	false	false	false	false	false				McAuto|Desayunos|Parking|Terraza|Cumpleaños|Delivery	true	12:30-00:00	12:30-00:00	12:30-00:00	12:30-00:00	false	false	false	false	false	true	12:30-00:00	12:30-00:00	12:30-00:00	12:30-00:00	false
234	Cas Capiscol	C/ Leocadia Togores s/n | Parcela F, Cas Capiscol II	07010	Palma de Mallorca	971755751	39.5956	2.65053		Islas Baleares	PM	true	false	false	false	false	false				McAuto|Parking|Terraza|Servicio a mesa|Cumpleaños|Delivery|Para llevar	true	09:30-00:00	09:30-00:00	09:30-00:00	09:30-00:00	false	false	false	false	false	true	09:30-00:00	09:30-02:00	09:30-00:00	09:30-02:00	false
620	Palma Aragon	C/ Aragón, nº 207	07008	Palma de Mallorca	971475988	39.587565	2.674445	palmaaragon.620@es.mcd.com	Islas Baleares	PM	true	false	false	false	false	false				McAuto|Parking|Terraza|Servicio a mesa|Cumpleaños|Delivery|Para llevar	true	11:00-00:00	11:00-00:00	11:00-00:00	11:00-00:00	false	false	false	false	false	true	11:00-01:00	11:00-01:00	11:00-01:00	11:00-01:00	false
682	Palma Levante	C/ Son Falco, nº 24	07007	Palma de Mallorca	971778666	39.56447492	2.68401832		Islas Baleares	PM	true	false	false	false	false	false				McAuto|McCafé|Play Place|Parking|Terraza|Servicio a mesa|Signature|Minusválidos|Cumpleaños|Ticket|Delivery|Descuento familias numerosas|Para llevar	true	11:00-00:30	11:00-00:00	11:00-00:00	11:00-00:00	false	false	false	false	false	true	11:00-00:30	11:00-01:00	11:00-01:00	11:00-00:30	false
85	McDonald's Porto Pi	Avda. Joan Miro, nº155 | Porto Pi Terrazas	07015	Palma de Mallorca	971152112	39.5517	2.62087	portopi.85@es.mcd.com	Islas Baleares	PM	true	false	false	false	false	false	B07688401	JAKEH RESTAURANTES, S.L.	Avda. Joan Miro, nº155 | Porto Pi Terrazas 07015	McAuto|Parking|Terraza|Minusválidos|Delivery|Descuento familias numerosas|Para llevar	true	13:00-22:00	12:30-22:30	13:00-22:00	13:00-22:30	false	false	false	false	false	true	13:00-22:00	12:30-22:30	13:00-22:00	13:00-22:30	false
554	Palma Aeropuerto II	Aeropuerto Son Sant Joan | Local 4, Planta +2 | Ampliacion C-Villas	07611	Palma de Mallorca	971492770	39.549529	2.736296	palmaaeropuertoII.554@es.mcd.com	Islas Baleares	PM	true	false	false	false	false	false				Desayunos	true	08:00-22:00	08:00-22:00	08:00-22:00	08:00-22:00	false	false	false	false	false	false	false	false	false	false	false
352	Arenal II	Ctra del Arenal, 29 | Balneario, 8	07610	Palma de Mallorca	971492805	39.5199	2.74142	arenalii.352@es.mcd.com	Islas Baleares	PM	false	2021-04-01	false	false	false	false	B57882532	Family Food & Fun, s.l.	C/ sencelles 73-74	Desayunos|Terraza|McExpress|Descuento familias numerosas|Para llevar	false	false	false	false	false	false	false	false	false	false	false	false	false	false	false	false
337	Festival Park	C.C. Festival Park | Autopista Palma-Inca, Km 7.100	07141	Marratxí	971226636	39.633	2.73239	festivalpark.337@es.mcd.com	Islas Baleares	PM	true	false	false	false	false	false				Desayunos|Parking|Terraza|Minusválidos|Descuento familias numerosas|Para llevar	true	11:00-22:30	10:00-00:00	10:00-23:00	10:00-00:00	false	false	false	false	false	false	false	false	false	false	all
13	Palma Nova	Paseo del Mar, nº 7 | Palmanova	07181	Calviá	971682951	39.5215	2.53755	palmanova.13@es.mcd.com	Islas Baleares	PM	true	false	false	false	false	false				McCafé|Terraza|Servicio a mesa|Signature|Minusválidos|Delivery|Descuento familias numerosas|Para llevar	true	11:30-22:30	11:00-23:00	11:00-23:00	11:00-23:00	false	false	false	false	false	false	false	false	false	false	false
493	Arenal Playa	C/ Cartago, nº40	07600	Palma de Mallorca	971441852	39.5064	2.75169	arenalplaya.493@es.mcd.com	Islas Baleares	PM	true	false	false	false	false	false	b16664807	family food & fun arenal, s.l.	c/ cartago 40	Terraza|Ticket|Delivery|Descuento familias numerosas|Para llevar	true	11:00-23:00	11:00-00:00	11:00-23:00	11:00-00:00	false	false	false	false	false	false	false	false	false	false	false
311	Magalluf	Blanca Olivera, 1	07181	Magalluf	971132699	39.5074	2.53243	magalluf.311@es.mcd.com	Islas Baleares	PM	false	false	false	false	false	false				Terraza|Delivery	false	false	false	false	false	false	false	false	false	false	false	false	false	false	false	false
303	Santa Ponça	Avenida Puig de Galatzó, 12	07181	Santa Ponça	971699651	39.5177	2.48144	santaponca.303@es.mcd.com	Islas Baleares	PM	false	false	false	false	false	false				Delivery	false	false	false	false	false	false	false	false	false	false	false	false	false	false	false	false
310	Inca	C/ Sencelles, 73-74	07300	Inca	971507454	39.7112	2.90885		Islas Baleares	PM	true	false	false	false	false	false				McAuto|Play Place|Parking|Terraza|Signature|Cumpleaños	true	12:00-00:00	12:00-00:00	12:00-00:00	12:00-00:00	false	false	false	false	false	true	12:00-00:00	12:00-00:00	12:00-00:00	12:00-00:00	false
815	Manacor Via Palma	C/ Via Majorica, nº 66 | esquina Bonany	07500	Manacor	971552932	39.5719	3.1969	manacorviapalma.815@es.mcd.com	Islas Baleares	PM	true	false	false	false	971552932	manacorviapalma.815@es.mcd.com	B-57996381	Family Food& Fun Manacor, S.L	C/ Via Majorica, Nº66	McAuto|McCafé|Desayunos|Parking|Terraza|Signature|Minusválidos|Cumpleaños|Descuento familias numerosas|Para llevar|Cumpleaños en casa	true	10:00-00:00	10:00-00:00	10:00-00:00	10:00-00:00	false	false	false	false	false	true	10:00-00:00	10:00-01:00	10:00-01:00	10:00-00:00	false
542	Zaragoza Coso	C/ Coso, nº 62 | esq. C/ Jeronimo Blancas	50001	Zaragoza	976217320	41.651612	-0.879698	zaragozacoso.542@es.mcd.com	Zaragoza	Z	true	false	false	false	976217320	zaragozacoso.542@es.mcd.com	B-50859735	Zaragoza de Ocio y Restauración S.L.	Jerónimo Blancas 2 5º 5A	Desayunos|Delivery|Descuento familias numerosas|Para llevar|Cumpleaños en casa	true	11:00-22:00	11:00-22:00	11:00-22:00	11:00-22:00	false	false	false	false	false	false	false	false	false	false	
762	Zaragoza M.Cadena	C/ San Juan de la Peña, nº 80	50015	Zaragoza	876281999	41.666365	-0.871357	zaragozamcadena.762@es.mcd.com	Zaragoza	Z	true	false	false	false	false	false				McAuto|Parking|Terraza|Servicio a mesa|Minusválidos|Ticket|Delivery|Descuento familias numerosas|Para llevar|Cumpleaños en casa	true	12:00-00:00	12:00-00:00	12:00-00:00	12:00-00:00	false	false	false	false	false	true	12:00-00:00	12:00-01:00	12:00-00:00	12:00-00:00	
448	Zaragoza Gran Casa	Centro Comercial "Gran Casa" | local 202 | Avda. María Zambrano, nº 35	50018	Zaragoza	976512255	41.669	-0.889658	grancasa.448@es.mcd.com	Zaragoza	Z	true	false	false	false	false	false				Desayunos|Parking|Terraza|Servicio a mesa|Cumpleaños|Ticket|Descuento familias numerosas|Para llevar	true	10:00-23:00	10:00-00:00	12:00-23:00	10:00-00:00	false	false	false	false	false	false	false	false	false	false	false
318	Zaragoza Alcampo	Centro Comercial "Utrillas Plaza" | Plaza de Utrillas, nº 6	50013	Zaragoza	976480025	41.6409	-0.867367	zaragozaalcampo.318@es.mcd.com	Zaragoza	Z	true	false	false	false	false	false			null	Terraza|Delivery	true	12:00-23:00	12:00-23:00	12:00-23:00	12:00-23:00	false	false	false	false	false	false	false	false	false	false	false
215	Zaragoza Pryca	Centro Comercial Carrefour | Avenida María Zambrano, nº 71	50018	Zaragoza	976744198	41.6762	-0.889524	zaragozapryca.215@es.mcd.com	Zaragoza	Z	true	false	false	false	false	false				Desayunos|Parking|Cumpleaños|Ticket|Delivery|Descuento familias numerosas|Para llevar	true	09:00-23:00	09:00-23:00	12:00-23:00	12:00-23:00	false	false	false	false	false	false	false	false	false	false	false
787	Zaragoza La Almozara	Avda. de Francia, nº 8 | esquina C/ Luxemburgo	50003	Zaragoza	0	41.661908	-0.906812	zaragozalaalmozara.787@es.mcd.com	Zaragoza	Z	true	false	false	false	false	false				McAuto|Desayunos|Parking|Terraza|Signature|Cumpleaños|Delivery	true	12:00-23:00	12:00-00:00	12:00-23:00	12:00-23:00	false	false	false	false	false	true	12:00-23:00	12:00-00:00	12:00-23:00	12:00-23:00	
156	Zaragoza Enlaces	Via Hispanidad, 87-89	50011	Zaragoza	976328446	41.6504	-0.919136		Zaragoza	Z	true	false	false	false	false	false			null	McAuto|Play Place|Desayunos|Parking|Terraza|Cumpleaños|Delivery	true	11:00-00:00	11:00-00:00	11:00-00:00	11:00-00:00	false	false	false	false	false	true	11:00-00:00	11:00-00:00	11:00-00:00	11:00-00:00	false
492	Zaragoza Puerto Venecia	Centro Comercial Puerto Venecia | Isla de Murano, s/n	50021	Zaragoza	976930248	41.6087	-0.881996		Zaragoza	Z	true	false	false	false	976930248	zaragozapuertovenecia.492@es.mcd.com	B-50859735	Zaragoza de Ocio y Restauración S.L.	Jerónimo Blancas 2 5º 5A	McAuto|McCafé|Desayunos|Parking|Terraza|Servicio a mesa|Delivery|Descuento familias numerosas|Para llevar|Cumpleaños en casa	true	11:00-22:00	11:00-22:00	11:00-22:00	11:00-22:00	false	false	false	false	false	true	11:00-23:00	11:00-23:00	11:00-23:00	11:00-23:00	
839	Zaragoza Outlet	La Torre Outlet Zaragoza, Ctra. De Logroño, km 6,5	50011 	Zaragoza	0	41.675366	-0.954169	Zaragozaoutlet.839@es.mcd.com	Zaragoza	Z	true	false	false	false	false	false	B-50859305	Dalu Twins, S.L.U.		McAuto|McCafé|Desayunos|Parking|Terraza|Servicio a mesa|Signature|Minusválidos|Ticket	true	10:00-23:00	10:00-00:00	10:00-23:00	10:00-00:00	false	false	false	false	false	true	10:00-23:00	10:00-00:00	10:00-23:00	10:00-00:00	
467	Plaza Imperial	Centro Comercial Plaza Imperial | Avenida Diagonal ,nº 8	50197	Zaragoza	876768736	41.6311	-0.991344		Zaragoza	Z	true	false	false	false	false	false				McAuto|McCafé|Parking|Terraza|Servicio a mesa|Minusválidos|Descuento familias numerosas|Para llevar	true	10:00-23:00	10:00-00:00	10:00-23:00	10:00-00:00	false	false	false	false	false	true	10:00-23:00	10:00-00:00	10:00-23:00	10:00-00:00	
372	Huesca	Centro Comercial Coso Real | Avda. de Doctor Artero, nº31	22004	Huesca	974218482	42.1481	-0.425797	huesca.372@es.mcd.com	Huesca	HU	true	false	false	false	false	false				McAuto|Play Place|Parking|Terraza|Servicio a mesa|Signature|Minusválidos|Cumpleaños|Ticket|Delivery|Descuento familias numerosas|Para llevar	true	11:00-23:00	11:00-23:00	11:00-23:00	11:00-23:00	false	false	false	false	false	true	11:00-23:00	11:00-00:00	11:00-23:30	11:00-23:30	false
547	McDonald's Tudela	Ctra. de Corella | Vial Rio Colmar, s/n	31500	Tudela	948827150	42.059505	-1.630139	tudela.547@es.mcd.com	Navarra	NA	true	false	false	false	false	false				McAuto|Parking|Minusválidos|Delivery|Descuento familias numerosas|Para llevar	true	11:30-21:00	11:30-21:00	11:30-21:00	11:30-21:00	false	false	false	false	false	true	11:30-21:00	11:30-21:00	11:30-21:00	11:30-21:00	
20	Oviedo	C/ Uria, nº 26 bajo	33003	Oviedo	985210353	43.3636	-5.85041	oviedo.20@es.mcd.com	Asturias	O	true	false	false	false	false	false				Terraza|Minusválidos|Ticket|Delivery|Descuento familias numerosas|Para llevar|Cumpleaños en casa	true	12:00-00:00	12:00-00:00	12:00-00:00	12:00-00:00	false	false	false	false	false	false	false	false	false	false	all
397	Oviedo Carrefour	Centro Comercial Los Prados | C/ Joaquin Costa, s/n	33011	Oviedo	985283684	43.3705	-5.83068	oviedocarrefour.397@es.mcd.com	Asturias	O	true	false	false	false	false	false				Parking|Terraza|Minusválidos|Cumpleaños|Ticket|Delivery|Descuento familias numerosas|Para llevar	true	12:00-00:00	12:00-00:00	12:00-00:00	12:00-00:00	false	false	false	false	false	false	false	false	false	false	all
302	McDonalds Parque Principado	C.C. y de Ocio Intu Asturias | Autovia A-66, Km 4,5 | Locales 97A-98	33429	Sieros	985261858	43.3898	-5.80489	parqueprincipado.302@es.mcd.com	Asturias	O	true	false	false	false	false	false	B74322157	Siero Restauracion	C.C. Parque Principado	Parking|Terraza|Minusválidos|Ticket|Delivery|Descuento familias numerosas|Para llevar	true	12:00-22:00	12:00-22:00	12:00-22:00	12:00-22:00	false	false	false	false	false	false	false	false	false	false	false
180	McDonald's Lugones 	Centro Comercial Azabache | Ctra. N-630, Km. 451	33420	Lugones	985262036	43.413	-5.79746		Asturias	O	true	false	false	false	false	false				McAuto|McCafé|Play Place|Parking|Terraza|Signature|Minusválidos|Ticket|Delivery|Descuento familias numerosas|Para llevar	true	12:00-22:00	12:00-22:00	12:00-22:00	12:00-22:00	false	false	false	false	false	true	12:00-01:00	12:00-01:00	12:00-01:00	12:00-01:00	
242	McDonald's Parque Astur	Centro Comercial Parque Astur | Ctra. Campo del Tiro s/n	33416	Corvera	985514114	43.5454	-5.86962	parqueastur.242@es.mcd.com	Asturias	O	true	false	false	false	false	false	B33658725	Aviles Restauración Y Ocio SLU	C.C Parque Astur Carretera campo de tiro S/N Trasona Asturias	Parking|Signature|Ticket|Descuento familias numerosas|Para llevar	true	13:00-22:00	13:00-22:00	13:00-22:00	13:00-22:00	false	false	false	false	false	false	false	false	false	false	false
254	McDonald's Avilés FS	C/ Foro de Avilés, 15 | Camino de Heros, s/n	33400	Avilés	985934838	43.5526	-5.93234	avilesfs.254@es.mcd.com	Asturias	O	true	false	false	false	false	false	B33658725	Aviles Restauracion y Ocio S.L.U.	Carretera Campo de Tiro S/N C.C. Paraque Astur Trasona Asturias	McAuto|McCafé|Parking|Terraza|Minusválidos|Ticket|Delivery|Descuento familias numerosas|Para llevar	true	12:00-22:00	12:00-22:00	12:00-22:00	12:00-22:00	false	false	false	false	false	true	12:00-00:00	12:00-01:00	12:00-00:00	12:00-01:00	
568	Gijon Constitución	Avda. Constitución, nº 105 | esq. C/ Severo Ochoa, nº 36 | junto EE.SS. Cepsa	33210	Gijón	985146741	43.525714	-5.677835	gijonconstitucion.568@es.mcd.com	Asturias	O	true	false	false	false	false	false	B33779984	Hortona S.L.U.		McAuto|McCafé|Play Place|Parking|Terraza|Servicio a mesa|Signature|Minusválidos|Cumpleaños|Ticket|Delivery|Descuento familias numerosas|Para llevar	true	12:00-00:00	12:00-00:00	12:00-00:00	12:00-00:00	false	false	false	false	false	true	12:00-00:00	12:00-00:00	12:00-00:00	12:00-00:00	all
257	Gijón La Calzada	Centro de Ocio Ocimax | C/ Maestro Amado Morán, s/n	33213	Gijón	985309005	43.5366	-5.69444	gijonlacalzada.257@es.mcd.com	Asturias	O	true	false	false	false	false	false				McCafé|Play Place|Parking|Terraza|Servicio a mesa|Signature|Minusválidos|Cumpleaños|Ticket|Delivery|Descuento familias numerosas|Para llevar	true	12:00-00:00	12:00-00:00	12:00-00:00	12:00-00:00	false	false	false	false	false	false	false	false	false	false	all
753	Gijón-Oasis	Carretera de Somió, 361	33203	Gijón	985879974	43.54235	-5.640417	gijonoasis.753@es.mcd.com	Asturias	O	true	false	false	false	false	false				McAuto|Play Place|Parking|Terraza|Servicio a mesa|Signature|Minusválidos|Cumpleaños|Ticket|Delivery|Descuento familias numerosas|Para llevar	true	12:00-00:00	12:00-00:00	12:00-00:00	12:00-00:00	false	false	false	false	false	true	12:00-00:00	12:00-00:00	12:00-00:00	12:00-00:00	all
258	McDonald's Papalaguinda	Paseo de Papalaguinda s/n	24004	León	987252096	42.5924	-5.57653	leon2.258@es.mcd.com	León	LE	true	false	false	false	false	false	B-24686768	Amaro Gastronomia S.L.	PASEO DE PAPALAGUINDA S/N	McAuto|McCafé|Play Place|Desayunos|Parking|Terraza|Servicio a mesa|Minusválidos|Cumpleaños|Ticket|Delivery|Descuento familias numerosas|Para llevar	true	12:00-01:00	12:00-01:00	12:00-01:00	12:00-01:00	false	false	false	false	false	true	12:00-01:00	12:00-01:00	12:00-01:00	12:00-01:00	
550	Mercaleon	Ctra. De Vilecha, nº21 | esq. C/ de los Aluches	24192	León	987214300	42.580244	-5.571862	mercaleon.550@es.mcd.com	León	LE	true	false	false	false	false	false	B-24323024	Comidas Raápidas del León S.L.	Crtra. Vilecha 21,León	McAuto|McCafé|Play Place|Desayunos|Parking|Terraza|Servicio a mesa|Minusválidos|Cumpleaños|Ticket|Delivery|Descuento familias numerosas|Para llevar	true	11:00-01:00	11:00-01:00	11:00-01:00	11:00-01:00	false	false	false	false	false	true	11:00-01:00	11:00-01:00	11:00-01:00	11:00-01:00	false
82	Valladolid - El Palero	C/ Puerto Rico, nº 8	47014	Valladolid	983221388	41.6368	-4.74642		Valladolid	VA	true	false	false	false	-	-	-	-	-	McAuto|McCafé|Parking|Terraza|Servicio a mesa|Ticket|Delivery|Descuento familias numerosas|Para llevar|Cumpleaños en casa	true	12:00-00:00	12:00-00:00	12:00-00:00	12:00-00:00	false	false	false	false	false	true	12:00-00:00	12:00-02:00	12:00-00:00	12:00-02:00	
541	Valladolid Hospital	C/ Palillos, s/n - | c/v C/ Requintos y Dulzaina	47012	Valladolid	983693119	41.629131	-4.710514	valladolidhospital.541@es.mcd.com	Valladolid	VA	true	false	false	false	-	-	-	-	-	McAuto|McCafé|Parking|Terraza|Servicio a mesa|Ticket|Delivery|Descuento familias numerosas|Para llevar|Cumpleaños en casa	true	12:00-00:00	12:00-00:00	12:00-00:00	12:00-00:00	false	false	false	false	false	true	12:00-00:00	12:00-02:00	12:00-00:00	12:00-02:00	
335	Valladolid Zaratán	C.C. Equinocio Park | Ctra. de la Mota, Km 0.300 | Planta 1ª- local 10	47610	Zaratán	983362216	41.6599	-4.77279	valladolidzaratan.335@es.mcd.com	Valladolid	VA	true	false	false	false	-	-	-	-	-	Parking|Descuento familias numerosas|Cumpleaños en casa	true	18:00-23:30	18:00-00:00	18:00-00:00	18:00-00:00	false	false	false	false	false	false	false	false	false	false	false
638	Valladolid Arroyo Encomienda	Camino Arroyo, s/n | junto a C.C. Rio Shopping	47195	Arroyo de la Encomienda	983347972	41.632	-4.784	valladolidarroyodelaencomienda.638@es.mcd.com	Valladolid	VA	true	false	false	false	-	-	-	-	-	McAuto|Parking|Terraza|Ticket|Descuento familias numerosas|Para llevar|Cumpleaños en casa	true	11:30-23:30	11:30-00:00	11:30-00:00	11:30-00:00	false	false	false	false	false	true	11:30-23:30	11:30-00:00	11:30-00:00	11:30-00:00	
535	PALENCIA ARAMBOL	Parque Comercial Arambol | Avda. de Brasilia, s/n	34004	Palencia	979178435	42.012016	-4.519585	palenciaarambol.535@es.mcd.com	Palencia	P	true	false	false	false	false	false	B/34276790	HUCA CARRION S.L.	Parque Comercial Arambol | Avda. de Brasilia, s/n	McAuto|McCafé|Desayunos|Parking|Terraza|Servicio a mesa|Signature|Minusválidos|Ticket|Delivery|Descuento familias numerosas|Para llevar|Cargador coche eléctrico	true	09:00-22:00	09:00-22:00	09:00-22:00	09:00-22:00	false	false	false	false	false	true	09:00-00:00	09:00-01:00	09:00-00:00	09:00-01:00	Por ahora no.
767	Aranda de Duero	Avda. Castilla esquina | Avda. Luis Mateos	09400	Aranda de Duero	947559600	41.66287	-3.692732	arandadeduero.767@es.mcd.com	Burgos	BU	true	false	false	false	false	false				McAuto|Desayunos|Parking|Terraza|Minusválidos|Delivery|Descuento familias numerosas|Para llevar	true	13:00-00:00	13:00-00:30	13:00-00:30	13:00-00:30	false	false	false	false	false	true	10:30-00:00	10:30-00:30	10:30-00:30	10:30-00:30	
73	Zamora	Centro Comercial Valderaduey | Avda. Cardenal Cisneros, s/n	49023	Zamora	980536488	41.5145	-5.74641	zamora.73@es.mcd.com	Zamora	ZA	true	false	false	false	980536488	-	-	-	-	McAuto|McCafé|Parking|Terraza|Minusválidos|Ticket|Delivery|Descuento familias numerosas|Para llevar|Cumpleaños en casa	true	12:00-00:00	12:00-00:00	12:00-00:00	12:00-00:00	false	false	false	false	false	true	12:00-00:00	12:00-00:00	12:00-00:00	12:00-00:00	
688	Segovia Plaza Artillería	Avenida Padre Claret, nº 4	40001	Segovia	921421097	40.94815	-4.11654	segoviaplazaartilleria.688@es.mcd.com	Segovia	SG	true	false	false	false	false	false				McCafé|Terraza|Minusválidos|Delivery|Descuento familias numerosas|Para llevar	true	12:00-23:30	12:00-00:00	12:00-23:30	12:00-23:30	false	false	false	false	false	false	false	false	false	false	false
753	Gijón-Oasis	Carretera de Somió, 361	33203	Gijón	985879974	43.54235	-5.640417	gijonoasis.753@es.mcd.com	Asturias	O	true	false	false	false	false	false				McAuto|Play Place|Parking|Terraza|Servicio a mesa|Signature|Minusválidos|Cumpleaños|Ticket|Delivery|Descuento familias numerosas|Para llevar	true	12:00-00:00	12:00-00:00	12:00-00:00	12:00-00:00	false	false	false	false	false	true	12:00-00:00	12:00-00:00	12:00-00:00	12:00-00:00	all
568	Gijon Constitución	Avda. Constitución, nº 105 | esq. C/ Severo Ochoa, nº 36 | junto EE.SS. Cepsa	33210	Gijón	985146741	43.525714	-5.677835	gijonconstitucion.568@es.mcd.com	Asturias	O	true	false	false	false	false	false	B33779984	Hortona S.L.U.		McAuto|McCafé|Play Place|Parking|Terraza|Servicio a mesa|Signature|Minusválidos|Cumpleaños|Ticket|Delivery|Descuento familias numerosas|Para llevar	true	12:00-00:00	12:00-00:00	12:00-00:00	12:00-00:00	false	false	false	false	false	true	12:00-00:00	12:00-00:00	12:00-00:00	12:00-00:00	all
257	Gijón La Calzada	Centro de Ocio Ocimax | C/ Maestro Amado Morán, s/n	33213	Gijón	985309005	43.5366	-5.69444	gijonlacalzada.257@es.mcd.com	Asturias	O	true	false	false	false	false	false				McCafé|Play Place|Parking|Terraza|Servicio a mesa|Signature|Minusválidos|Cumpleaños|Ticket|Delivery|Descuento familias numerosas|Para llevar	true	12:00-00:00	12:00-00:00	12:00-00:00	12:00-00:00	false	false	false	false	false	false	false	false	false	false	all
242	McDonald's Parque Astur	Centro Comercial Parque Astur | Ctra. Campo del Tiro s/n	33416	Corvera	985514114	43.5454	-5.86962	parqueastur.242@es.mcd.com	Asturias	O	true	false	false	false	false	false	B33658725	Aviles Restauración Y Ocio SLU	C.C Parque Astur Carretera campo de tiro S/N Trasona Asturias	Parking|Signature|Ticket|Descuento familias numerosas|Para llevar	true	13:00-22:00	13:00-22:00	13:00-22:00	13:00-22:00	false	false	false	false	false	false	false	false	false	false	false
180	McDonald's Lugones 	Centro Comercial Azabache | Ctra. N-630, Km. 451	33420	Lugones	985262036	43.413	-5.79746		Asturias	O	true	false	false	false	false	false				McAuto|McCafé|Play Place|Parking|Terraza|Signature|Minusválidos|Ticket|Delivery|Descuento familias numerosas|Para llevar	true	12:00-22:00	12:00-22:00	12:00-22:00	12:00-22:00	false	false	false	false	false	true	12:00-01:00	12:00-01:00	12:00-01:00	12:00-01:00	
302	McDonalds Parque Principado	C.C. y de Ocio Intu Asturias | Autovia A-66, Km 4,5 | Locales 97A-98	33429	Sieros	985261858	43.3898	-5.80489	parqueprincipado.302@es.mcd.com	Asturias	O	true	false	false	false	false	false	B74322157	Siero Restauracion	C.C. Parque Principado	Parking|Terraza|Minusválidos|Ticket|Delivery|Descuento familias numerosas|Para llevar	true	12:00-22:00	12:00-22:00	12:00-22:00	12:00-22:00	false	false	false	false	false	false	false	false	false	false	false
254	McDonald's Avilés FS	C/ Foro de Avilés, 15 | Camino de Heros, s/n	33400	Avilés	985934838	43.5526	-5.93234	avilesfs.254@es.mcd.com	Asturias	O	true	false	false	false	false	false	B33658725	Aviles Restauracion y Ocio S.L.U.	Carretera Campo de Tiro S/N C.C. Paraque Astur Trasona Asturias	McAuto|McCafé|Parking|Terraza|Minusválidos|Ticket|Delivery|Descuento familias numerosas|Para llevar	true	12:00-22:00	12:00-22:00	12:00-22:00	12:00-22:00	false	false	false	false	false	true	12:00-00:00	12:00-01:00	12:00-00:00	12:00-01:00	
397	Oviedo Carrefour	Centro Comercial Los Prados | C/ Joaquin Costa, s/n	33011	Oviedo	985283684	43.3705	-5.83068	oviedocarrefour.397@es.mcd.com	Asturias	O	true	false	false	false	false	false				Parking|Terraza|Minusválidos|Cumpleaños|Ticket|Delivery|Descuento familias numerosas|Para llevar	true	12:00-00:00	12:00-00:00	12:00-00:00	12:00-00:00	false	false	false	false	false	false	false	false	false	false	all
20	Oviedo	C/ Uria, nº 26 bajo	33003	Oviedo	985210353	43.3636	-5.85041	oviedo.20@es.mcd.com	Asturias	O	true	false	false	false	false	false				Terraza|Minusválidos|Ticket|Delivery|Descuento familias numerosas|Para llevar|Cumpleaños en casa	true	12:00-00:00	12:00-00:00	12:00-00:00	12:00-00:00	false	false	false	false	false	false	false	false	false	false	all
165	Burgos Continente	Centro Comercial El Mirador | Ctra. Santander, Km. 2	09006	Burgos	947227328	42.359759	-3.69452	burgoscontinente.165@es.mcd.com	Burgos	BU	true	false	false	false	false	false				Desayunos|Parking|Terraza|Servicio a mesa|Minusválidos|Delivery|Descuento familias numerosas|Para llevar	true	11:30-00:00	11:30-00:30	12:00-00:30	11:30-00:30	false	false	false	false	false	false	false	false	false	false	
103	Burgos Pryca	Centro Comercial Parque Burgos | Ctra. Nacional I, Km. 236	09001	Burgos	947279012	42.319294	-3.7027		Burgos	BU	true	false	false	false	false	false				McAuto|McCafé|Desayunos|Parking|Terraza|Servicio a mesa|Signature|Cumpleaños|Delivery|Descuento familias numerosas|Para llevar	true	10:30-00:00	10:30-00:00	10:30-00:00	10:30-00:00	false	false	false	false	false	true	10:30-00:00	10:30-00:30	10:30-00:00	10:30-00:30	false
685	Burgos Gamonal	C/ Juan Ramón Jiménez, nº 1	09007	Burgos	947470117	42.354734	-3.662479	burgosgamonal.685@es.mcd.com	Burgos	BU	true	false	false	false	false	false				McAuto|Play Place|Desayunos|Parking|Terraza|Cumpleaños|Delivery	true	13:00-23:30	13:00-00:00	13:00-23:30	13:00-23:30	false	false	false	false	false	true	13:00-23:30	13:00-00:00	13:00-23:30	13:00-23:30	false
767	Aranda de Duero	Avda. Castilla esquina | Avda. Luis Mateos	09400	Aranda de Duero	947559600	41.66287	-3.692732	arandadeduero.767@es.mcd.com	Burgos	BU	true	false	false	false	false	false				McAuto|Desayunos|Parking|Terraza|Minusválidos|Delivery|Descuento familias numerosas|Para llevar	true	13:00-00:00	13:00-00:30	13:00-00:30	13:00-00:30	false	false	false	false	false	true	10:30-00:00	10:30-00:30	10:30-00:30	10:30-00:30	
535	PALENCIA ARAMBOL	Parque Comercial Arambol | Avda. de Brasilia, s/n	34004	Palencia	979178435	42.012016	-4.519585	palenciaarambol.535@es.mcd.com	Palencia	P	true	false	false	false	false	false	B/34276790	HUCA CARRION S.L.	Parque Comercial Arambol | Avda. de Brasilia, s/n	McAuto|McCafé|Desayunos|Parking|Terraza|Servicio a mesa|Signature|Minusválidos|Ticket|Delivery|Descuento familias numerosas|Para llevar|Cargador coche eléctrico	true	09:00-22:00	09:00-22:00	09:00-22:00	09:00-22:00	false	false	false	false	false	true	09:00-00:00	09:00-01:00	09:00-00:00	09:00-01:00	Por ahora no.
6	Pelayo	C/ Pelayo, nº 62	08001	Barcelona	933182990	41.3854	2.16975	pelayo.6@es.mcd.com	Barcelona	B	true	false	false	false	false	false				Desayunos|Minusválidos|Ticket|Delivery|Descuento familias numerosas|Para llevar	true	10:00-00:00	10:00-00:00	12:00-00:00	10:00-00:00	false	false	false	false	false	false	false	false	false	false	false
11	Ramblas	Rambla de Capuchinos, 60	08002	Barcelona	933179887	41.3805	2.1742	ramblas.11@es.mcd.com	Barcelona	B	true	false	false	false	false	false			null	Delivery|Para llevar	true	11:30-00:00	11:30-00:00	11:30-00:00	11:30-00:00	false	false	false	false	false	false	false	false	false	false	false
106	DIAGONAL	Avda. Diagonal, 466	08006	Barcelona	932173005	41.3961	2.15669	diagonal.106@es.mcd.com	Barcelona	B	true	false	false	false	false	false	B62252853	OSONA 1959 SLU	Avda Diagonal 466, 08006 BARCELONA	Minusválidos|Ticket|Delivery|Para llevar	true	12:00-00:00	12:00-00:00	12:00-00:00	12:00-00:00	false	false	false	false	false	false	false	false	false	false	
132	Sagrada Familia	C/ Provenza, 419-425	08025	Barcelona	934568391	41.4039	2.17345	sagradafamilia.132@es.mcd.com	Barcelona	B	true	false	false	false	false	false				Terraza|Minusválidos|Ticket|Delivery|Descuento familias numerosas|Para llevar	true	11:00-01:00	11:00-01:00	11:00-01:00	11:00-01:00	false	false	false	false	false	false	false	false	false	false	all
48	MAYOR DE GRACIA	C/ Mayor de Gracia, 113	08012	Barcelona	932178432	41.4014	2.1535	mayordegracia.48@es.mcd.com	Barcelona	B	true	false	false	false	false	false	B67557108	MONT-BRULL 48 SLU	C/Gran de Gracia 113, 08012 BARCELONA	Minusválidos|Ticket|Delivery|Para llevar	true	10:00-01:00	12:00-01:00	12:00-01:00	12:00-01:00	false	false	false	false	false	false	false	false	false	false	
105	Puerto Olímpico	Parc de Mar, Carrer de Jaume Vicens i Vives, 2	08005	Barcelona		41.3884	2.19937		Barcelona	B	true	false	false	false	false	false					false	false	false	false	false	false	false	false	false	false	false	false	false	false	false	false
55	Villa Olímpica	Villa Olímpica - Parc de Mar | C/ Jaime Vicens Vives, nº 2	08005	Barcelona	932212435	41.3927	2.20365	villaolimpica.55@es.mcd.com  	Barcelona	B	true	false	false	false	932212435	villaolimpica.55@es.mcd.com  	CIF A28586097	Restaurantes McDonald´s SAU	 C/Somera 5. 28023 Madrid. 	McAuto|Parking|Minusválidos|Ticket|Delivery|Descuento familias numerosas|Para llevar|Cumpleaños en casa	true	11:00-00:00	11:00-00:00	11:00-00:00	11:00-00:00	false	false	false	false	false	true	11:00-04:00	11:00-05:00	11:00-04:00	11:00-05:00	all
44	Montigalà	Av. Olof Palme s.n	08917	Badalona	934653238	41.4555	2.22737	montigala.44@es.mcd.com	Barcelona	B	true	false	false	false	false	false				Parking|Signature|Minusválidos|Ticket|Delivery|Descuento familias numerosas|Para llevar	true	12:00-23:00	12:00-00:00	12:00-23:00	12:00-00:00	false	false	false	false	false	false	false	false	false	false	
80	Cornellá	Carretera de Esplugues, 1-19 | Centro Comercial Llobregat Centre	08940	Cornellá de Llobregat	934742993	41.3575	2.06777	cornella.80@es.mcd.com	Barcelona	B	true	false	false	false	false	false	B66663923	HAPPYCUS, S.L.		Parking|Terraza|Minusválidos|Ticket|Delivery|Descuento familias numerosas|Para llevar	true	12:00-23:00	12:00-23:30	12:00-23:30	12:00-23:30	false	false	false	false	false	false	false	false	false	false	
46	San Joaquin 	C/ Del Mar, esquina San Joaquín, nº 1-3	08911	Badalona	934640828	41.447	2.25032	sanjoaquinbadalona.46@es.mcd.com	Barcelona	B	true	false	false	false	false	false				Signature|Minusválidos|Ticket|Delivery|Descuento familias numerosas|Para llevar	true	13:00-23:00	13:00-00:00	12:00-23:00	12:00-00:00	false	false	false	false	false	false	false	false	false	false	
159	Sant Boi	Centro Comercial Alcampo Sant Boi | Pol. Ind. "Las Salinas", s/n	08830	Sant Boi de Llobregat	936524206	41.3296	2.05191	santboi.159@es.mcd.com  	Barcelona	B	true	false	false	false	936 524 206	santboi.159@es.mcd.com  	CIF A28586097	 Restaurantes McDonald´s SAU 	C/Somera 5. 28023 Madrid.	McAuto|McCafé|Desayunos|Minusválidos|Ticket|Delivery|Descuento familias numerosas|Para llevar|Cumpleaños en casa	true	10:00-00:00	10:00-00:00	10:00-00:00	10:00-00:00	false	false	false	false	false	true	10:00-01:00	10:00-01:00	10:00-01:00	10:00-01:00	false
22	Baricentro	Centro Comercial Baricentro - Local 41 | Autopista a Sabadell - Salida 7A	08210	Barberá del Vallés	937185522	41.5083	2.13985	baricentro.22@es.mcd.com	Barcelona	B	true	false	false	false	937 185 522	baricentro.22@es.mcd.com	CIF A28586097	Restaurantes McDonald´s SAU 	C/Somera 5. 28023 Madrid.	McAuto|McCafé|Desayunos|Minusválidos|Ticket|Delivery|Descuento familias numerosas|Para llevar|Cumpleaños en casa	true	10:00-23:30	10:00-23:30	10:00-23:30	10:00-23:30	false	false	false	false	false	true	10:00-23:30	10:00-01:00	10:00-23:30	10:00-23:30	false
123	Sant Cugat	Centro Comercial Sant Cugat | Local 103 | Avda. Via Augusta, 2-14	08174	Sant Cugat del Vallés	933155668	41.4836	2.05402	santcugat.123@es.mcd.com	Barcelona	B	true	false	false	false	false	false				Parking|Minusválidos|Ticket|Delivery|Descuento familias numerosas|Para llevar|Cargador coche eléctrico	true	12:00-22:00	12:00-23:00	12:00-22:00	12:00-23:00	false	false	false	false	false	false	false	false	false	false	false
90	Gavá	Centro Comercial Barnasud | C/ Progreso, nº 69	08850	Gavá	936384431	41.2944	2.00782	gava90.90@es.mcd.com	Barcelona	B	true	false	false	false	false	false	B65886194	LLOBREGATICUS, S.L.	Ronda Europa, 60, 4a 2a - 08800 Vilanova i la Geltrú	McAuto|McCafé|Parking|Terraza|Minusválidos|Ticket|Delivery|Descuento familias numerosas|Para llevar	true	11:30-23:30	11:30-00:30	11:30-00:30	11:30-00:30	false	false	false	false	false	true	11:30-00:00	11:30-01:00	11:30-01:00	11:30-01:00	
57	McDonald's Sabadell Paddock	Centro Comercial Paddock Boulevard | Avda. FranÇés Macia, nº 46	08206	Sabadell	937239601	41.5535	2.09823	sabadell.57@es.mcd.com	Barcelona	B	true	false	false	false	false	false			null	McCafé|Play Place|Terraza|Cumpleaños|Delivery|Descuento familias numerosas	true	12:30-23:30	12:30-00:00	12:30-23:30	12:30-00:00	false	false	false	false	false	false	false	false	false	false	
98	McDonald's Terrassa Parc Vallés	Poligono Santa Margarita, nº 2 | Avenida Textil, nº 51	08223	Tarrasa	937863955	41.5457	2.02654		Barcelona	B	true	false	false	false	false	false				McAuto|Parking|Terraza|Servicio a mesa|Minusválidos|Ticket|Delivery|Descuento familias numerosas|Para llevar	true	12:30-23:30	12:30-00:00	12:30-23:30	12:30-23:30	false	false	false	false	false	true	-	-	-	-	weekend
181	Cabrera de Mar	Centro Comercial Carrefour | Ctra. Nacional II, Km. 644	08349	Cabrera de Mar	937501921	41.5203	2.42264	cabrerademar.181@es.mcd.com	Barcelona	B	true	false	false	false	false	false				McAuto|Minusválidos|Ticket|Delivery|Para llevar	true	12:00-22:30	12:00-23:00	12:00-22:30	12:00-22:30	false	false	false	false	false	true	12:00-23:00	12:00-00:00	12:00-23:00	12:00-23:00	
129	MCDONALDS GRANOLLERS	C/ Matagalls, nº 9	08402	Granollers	938465999	41.6118	2.30299	granollers.129@es.mcd.com	Barcelona	B	true	false	false	false	false	false	B61498499	MENGRA S.L.U	Calle Matagalls 9	McAuto|McCafé|Desayunos|Parking|Terraza|Servicio a mesa|Signature|Minusválidos|Descuento familias numerosas|Para llevar	true	12:00-23:00	12:00-00:00	12:00-00:00	12:00-00:00	false	false	false	false	false	true	12:00-23:00	12:00-00:00	12:00-00:00	12:00-00:00	false
118	Arenys de Mar	C/ Cami Ral, s/n - Nacional II, Km 655 | (Antigua Fábrica Muvisa)	08350	Arenys de Mar	937959061	41.5746	2.54	arenysdemar.118@es.mcd.com	Barcelona	B	true	false	false	false	false	false				McAuto|Play Place|Desayunos|Terraza|Servicio a mesa	true	11:00-23:00	11:00-00:00	11:00-23:00	11:00-00:00	false	false	false	false	false	true	11:00-23:00	11:00-00:00	11:00-23:00	11:00-00:00	false
75	Gerona	Centro Comercial Mas Gri | Parcela nº 4 | Ctra. Barcelona, s/n	17003	Gerona	972224397	41.9604	2.81153		Gerona	GI	true	false	false	false	false	false				McAuto|McCafé|Desayunos|Ticket|Delivery|Descuento familias numerosas|Para llevar	true	10:00-00:00	10:00-00:00	10:00-00:00	10:00-00:00	false	false	false	false	false	true	10:00-02:00	10:00-02:00	10:00-02:00	10:00-02:00	false
169	Las Gavarras	Poligono Comercial Las Gavarras | Autovia Tarragona-Reus, km 4,5	43006	Tarragona	977552212	41.1317	1.20518		Tarragona	T	true	false	false	false	false	false				McAuto|McCafé|Desayunos|Parking|Signature|Minusválidos|Ticket|Delivery|Descuento familias numerosas|Para llevar	true	12:00-23:30	12:00-00:00	12:00-23:30	12:00-23:30	false	false	false	false	false	true	12:00-23:30	12:00-01:00	12:00-23:30	12:00-23:30	false
120	Playa de Aro	Avenida S¿Agaró, nº 1	17250	Playa de Aro	972817263	41.8176	3.06697	playadearo.120@es.mcd.com	Gerona	GI	true	false	false	false	false	false				Terraza|Delivery|Para llevar	true	11:00-23:00	11:00-00:00	11:00-23:00	11:00-00:00	false	false	false	false	false	false	false	false	false	false	
95	Reus	Avda. María Fortuny, nº 59	43203	Reus	977772101	41.1587	1.11761		Tarragona	T	true	false	false	false	false	false				McAuto|Parking|Signature|Minusválidos|Delivery|Descuento familias numerosas|Para llevar	true	00:00-00:00	00:00-00:00	00:00-00:00	00:00-00:00	false	false	false	false	false	true	12:00-00:00	12:00-00:00	12:00-00:00	12:00-00:00	
32	Salou	Pº Jaime I, nº 22	43840	Salou	977350200	41.0748	1.13959	salou.32@es.mcd.com	Tarragona	T	true	false	false	false	false	false				Signature|Minusválidos|Ticket|Delivery|Descuento familias numerosas|Para llevar	true	12:30-23:00	12:30-00:00	12:30-23:00	12:30-00:00	false	false	false	false	false	false	false	false	false	false	Sábado
133	Cambrils	Avda. Diputación, nº 8	43850	Cambrils	977369084	41.0666	1.06684	cambrils.133@es.mcd.com	Tarragona	T	true	false	false	false	false	false				Delivery|Descuento familias numerosas|Para llevar	true	12:30-23:00	12:30-00:00	12:30-23:00	12:30-23:00	false	false	false	false	false	false	false	false	false	false	false
29	Malaga Plaza de La Marina	Plaza de la Marina, nº 2	29015	Málaga	952214761	36.7185	-4.42076	malagacentro.29@es.mcd.com	Málaga	MA	true	false	false	false	false	false	B82171596	RESTAURACIÓN GIL ALFARO SLU	plaza de la  marina 2	McCafé|Desayunos|Terraza|Minusválidos|Cumpleaños|Ticket|Delivery|Descuento familias numerosas|Para llevar	true	12:00-00:30	12:00-01:00	12:00-00:30	12:00-01:00	false	false	false	false	false	false	false	false	false	false	all
438	Málaga Vialia	Centro Comercial Vialia | Estación de Málaga | Estacion Maria Zambrano, Local A1-10	29002	Málaga	952313890	36.7124	-4.43276	malagavialia.438@es.mcd.com	Málaga	MA	true	false	false	false	false	false				Desayunos|Parking|Minusválidos|Cumpleaños|Delivery|Para llevar	true	13:00-22:30	13:00-23:30	13:00-22:30	13:00-23:30	false	false	false	false	false	false	false	false	false	false	
67	Málaga - La Rosaleda	Centro Comercial La Rosaleda | Avda. Simón Bolívar, nº12 | Local 42-B	29011	Málaga	952393738	36.7342	-4.4314	malagalarosaleda.67@es.mcd.com	Málaga	MA	true	false	false	false	false	false			null	Play Place|Desayunos|Parking|Terraza|Signature|Minusválidos|Cumpleaños|Ticket|Delivery|Descuento familias numerosas|Para llevar	true	13:00-23:00	13:00-23:00	13:00-23:00	13:00-23:00	false	false	false	false	false	false	false	false	false	false	false
420	Málaga Universidad	Avda. María Zambrano, Nº 7	29006	Málaga	952315691	36.7118	-4.46689		Málaga	MA	true	false	false	false	952315691	malagauniversidad.420@es.mcd.com	A28586097	RESTAURANTES McDONALD´S SAU	C/SOMERA 5. 28023 MADRID	McAuto|McCafé|Parking|Terraza|Servicio a mesa|Delivery|Descuento familias numerosas|24H|Para llevar|Cumpleaños en casa|Cargador coche eléctrico	true	11:30-23:30	11:30-00:00	11:30-23:30	11:30-00:00	false	false	false	false	false	true	11:30-00:00	00:00-00:00	11:30-00:00	00:00-00:00	weekend
17	Málaga Pryca	Centro Comercial Carrefour Los Patios | Avenida de Velazquez, Km 241	29004	Málaga	952130368	36.6865	-4.45805	malagapryca.17@es.mcd.com	Málaga	MA	true	false	false	false	952130368	malagapryca.17@es.mcd.com	B - 92105139	ROCLA RESTAURACIÓN S.L.U.	ALAMEDA DE COLÓN 16 1º-1	McCafé|Desayunos|Parking|Terraza|Servicio a mesa|Signature|Delivery|McExpress|Descuento familias numerosas|Para llevar|Cumpleaños en casa	true	12:00-00:00	12:00-00:00	12:00-00:00	12:00-00:00	true	-	-	-	-	false	false	false	false	false	false
384	Málaga Plaza Mayor	C.C. Plaza Mayor Parque de Ocio | Ctra. N-340, p.k. 331	29004	Málaga	952172666	36.6565	-4.47842	malagaplazamayor.384@es.mcd.com	Málaga	MA	true	false	false	false	false	false				McCafé|Desayunos|Parking|Terraza|Signature|Cumpleaños|Delivery|McExpress	true	12:00-00:00	12:00-00:00	12:00-23:00	12:00-00:00	true	12:00-00:00	12:00-00:00	12:00-23:00	12:00-00:00	false	false	false	false	false	all
523	Málaga Ikea	Parque Comercial BAHIA AZUL | Avda. de Velazquez, nº389 | Junto a Ikea	29004	Málaga	951908208	36.658152	-4.484857	malagaikea.523@es.mcd.com	Málaga	MA	true	false	false	false	951908208	malagaikea.523@es.mcd.com	B29505393	López Cano Restauración, SLU	Alameda de Colón 1, Oficina 1 29001 Málaga	McAuto|Parking|Terraza|Servicio a mesa|Signature|Minusválidos|Ticket|Delivery|Descuento familias numerosas|Para llevar|Cumpleaños en casa	true	12:00-23:00	12:00-00:00	12:00-23:00	12:00-23:00	false	false	false	false	false	true	11:00-02:00	11:00-03:00	11:00-02:00	11:00-03:00	
365	RINCON DE LA VICTORIA	Centro Comercial Rincón de la Victoria | C/ Arroyo de Totalán, nº36 | La Cala del Moral	29720	Málaga	952978673	36.723	-4.31285		Málaga	MA	true	false	false	false	false	false				McAuto|Parking|Terraza|Minusválidos|Delivery|Descuento familias numerosas	true	13:00-23:30	13:00-00:00	13:00-23:30	13:00-00:00	false	false	false	false	false	true	13:00-23:30	13:00-00:00	13:00-23:30	13:00-00:00	
314	Torremolinos-Los Alamos	Avda. Fraga Iribarne, nº 10	29620	Torremolinos	952058416	36.6431	-4.49148		Málaga	MA	true	false	false	false	952058416	torremolinoslosalamos314@es.mcd.com	B-92105139	Rocla Restauracion.S.L.U	Alameda de Colon, 16 1-1	McAuto|Parking|Terraza|Minusválidos|Cumpleaños|Descuento familias numerosas|Para llevar|Cumpleaños en casa	true	13:00-23:00	13:00-00:00	13:00-23:00	13:00-00:00	false	false	false	false	false	true	13:00-00:00	13:00-02:00	13:00-00:00	13:00-00:00	false
312	McDonald's Benalmadena	Avenida Antonio Machado, nº 60	29630	Benalmádena Costa	952021154	36.5884	-4.53055	benalmadenabilbil.312@es.mcd.com	Málaga	MA	true	false	false	false	952021154	benalmadenabilbil.312@es.mcd.com	B-29865813	Graf Restauracion S.L.U	Alameda de Colón 16 1º 1	Terraza|Signature|Minusválidos|Cumpleaños|Ticket|Delivery|McExpress|Descuento familias numerosas|Para llevar|Cumpleaños en casa	true	13:00-23:00	13:00-23:00	13:00-23:00	13:00-23:00	true	13:00-23:00	13:00-23:00	13:00-23:00	13:00-23:00	false	false	false	false	false	false
89	Mijas	C/ San Cristóbal, nº 24-26	29651	Mijas	952472117	36.5404	-4.63446		Málaga	MA	true	false	false	false	false	false				McAuto|Play Place|Parking|Terraza|Signature|Para llevar	true	12:00-00:00	12:00-01:00	12:00-00:00	12:00-01:00	false	false	false	false	false	true	12:00-00:00	12:00-01:00	12:00-00:00	12:00-01:00	false
545	Velez Malaga	Avda. Juan Carlos I, nº 16	29700	Vélez	952549012	36.761355	-4.099093	velezmalaga.545@es.mcd.com	Málaga	MA	true	false	false	false	false	false				McAuto|Parking|Terraza|Signature|Minusválidos|Descuento familias numerosas|Para llevar	true	13:00-23:30	13:00-00:00	13:00-23:30	13:00-00:00	false	false	false	false	false	true	13:00-23:30	13:00-00:00	13:00-23:30	13:00-00:00	
268	McDonald's Calahonda	Ctra. Nacional A-7, Km 196,5 | Urbanización Royal Beach - 29651	Calahonda	Mijas	952939127	36.4881	-4.72422		Málaga	MA	true	false	false	false	false	false				McAuto|Parking|Terraza|Minusválidos|Descuento familias numerosas|Para llevar	true	12:00-00:00	12:00-01:00	12:00-00:00	12:00-01:00	false	false	false	false	false	true	12:00-00:00	12:00-01:00	12:00-00:00	12:00-01:00	false
162	Marbella-Cañada	Centro Comercial La Cañada | Circunvalación de Marbella/Ctra. Ojén	29603	Marbella	952866180	36.5214	-4.8739	marbellalacanada.162@es.mcd.com	Málaga	MA	true	false	false	false	false	false	B29805801	Maigalbe, SL	Ctra de Ojen S/N	Desayunos|Parking|Terraza|Servicio a mesa|Signature|Minusválidos|Delivery|Descuento familias numerosas|Para llevar	true	11:00-23:00	11:00-23:30	13:00-23:30	11:00-23:30	false	false	false	false	false	false	false	false	false	false	
121	Marbella-Ojén	Ctra. de Ojén, s/n	29600	Marbella	952865463	36.5199	-4.88059		Málaga	MA	true	false	false	false	952865463	garcia.pepi@es.mcd.com;marlurim@gmail.com	B29805801	Maigalbe, SL 	Crta.Ojén S/N	McAuto|Parking|Terraza|Minusválidos|Cumpleaños|Descuento familias numerosas|Para llevar|Cumpleaños en casa	true	12:00-00:00	12:00-00:00	12:00-00:00	12:00-00:00	false	false	false	false	false	true	12:00-01:00	12:00-02:00	12:00-02:00	12:00-02:00	all
206	McDonald's Puerto Banus	Complejo Residencial "Marina Banús" | Local 6	29660	Marbella	952815929	36.4888	-4.95218	puertobanus.206@es.mcd.com	Málaga	MA	true	false	false	false	false	false				Terraza|Servicio a mesa|Delivery|Descuento familias numerosas|Para llevar	true	12:00-01:00	12:00-01:00	12:00-01:00	12:00-01:00	false	false	false	false	false	false	false	false	false	false	
196	San Pedro de Alcántara	Centro Comercial La Colonia | Ctra. Nacional -340	29670	San Pedro de Alcántara	952788217	36.4795	-4.99442	sanpedrodealcantara.196@es.mcd.com	Málaga	MA	true	false	false	false	false	false				McAuto|McCafé|Play Place|Desayunos|Parking|Terraza|Servicio a mesa|Minusválidos|Delivery|Descuento familias numerosas|Para llevar	true	12:00-00:00	12:00-00:00	12:00-00:00	12:00-00:00	false	false	false	false	false	true	12:00-01:00	12:00-02:00	12:00-01:00	12:00-01:00	
239	Almuñecar	Avda. de Fenicia, s/n | Ctra. N-340 (junto Estación Autobuses)	18690	Almuñécar	958635975	36.7361	-3.68811		Granada	GR	true	false	false	false	false	false				McAuto|Parking|Terraza|Signature|Minusválidos|Delivery|Para llevar	true	13:00-23:30	13:00-00:00	13:00-23:30	13:00-00:00	false	false	false	false	false	true	13:00-23:30	13:00-00:00	13:00-23:30	13:00-00:00	
343	Ronda	Plaza de España 7	29400	Ronda	952161182	36.7414	-5.16648	ronda.343@es.mcd.com	Málaga	MA	true	false	false	false	false	false				Terraza|Servicio a mesa|Minusválidos|Descuento familias numerosas|Para llevar	true	12:00-00:00	12:00-00:00	12:00-00:00	12:00-00:00	false	false	false	false	false	false	false	false	false	false	false
416	Estepona	Avda. del Litoral s/n	29680	Estepona	952807008	36.4316	-5.1228		Málaga	MA	true	false	false	false	false	false				McAuto|McCafé|Desayunos|Parking|Terraza|Servicio a mesa|Minusválidos|Delivery|Descuento familias numerosas|Para llevar	true	12:00-00:00	12:00-00:00	12:00-00:00	12:00-00:00	false	false	false	false	false	true	12:00-01:00	12:00-01:00	12:00-01:00	12:00-01:00	false
544	Lucena	Pol. Ind. "Los Polvillares" | Parking de Carrefour | Manzana 1, PP I3	14900	Lucena	957590530	37.4133	-4.507178	lucena.544@es.mcd.com	Córdoba	CO	true	false	false	false	false	false				McAuto|McCafé|Desayunos|Parking|Terraza|Servicio a mesa|Minusválidos|Delivery|Descuento familias numerosas|Para llevar	true	12:00-00:00	12:00-00:00	12:00-00:00	12:00-00:00	false	false	false	false	false	true	12:00-00:00	12:00-00:00	12:00-00:00	12:00-00:00	vespers
436	MOTRIL	Avda. Salobreña, s/n | (Junto a Alcampo)	18600	Motril	958834867	36.7433	-3.52681		Granada	GR	true	false	false	false	false	false				McAuto|Parking|Terraza|Ticket|Delivery|Descuento familias numerosas|Para llevar	true	13:00-23:30	13:00-00:00	13:00-23:30	13:00-00:00	false	false	false	false	false	true	13:00-23:30	13:00-00:00	13:00-23:30	13:00-00:00	
277	MCDONALDS McAuto ARMILLA	Centro Comercial "Parque Albán" | Ctra. de Armilla, s/n	18100	Armilla	958131598	37.1522	-3.61394	parquealban.277@es.mcd.com	Granada	GR	true	false	 no	no	958 131 598	parquealban.277@es.mcd.com	B18540310	Mudejar Restauracion S.L.	Parque Alban s/n 18100 Armilla Granada 	McAuto|McCafé|Parking|Terraza|Servicio a mesa|Signature|Minusválidos|Ticket|Delivery|Descuento familias numerosas|Para llevar|Cumpleaños en casa	true	12:00-22:00	12:00-22:00	12:00-22:00	12:00-22:00	false	false	false	false	false	true	12:00-00:00	12:00-01:00	12:00-00:00	12:00-01:00	
256	McDONALDS  CARREFOUR ZAIDIN	Centro Comercial Carrefour | Ctra. de Armilla, s/n	18006	Granada	958815055	37.1547	-3.60773	granadacontinente.256@es.mcd.com	Granada	GR	true	false	false	false	false	false	B 18516443	Guadiana Restauracion  S.L	CRTA.  ARMILLA  S/N	Desayunos|Parking|Terraza|Minusválidos|Ticket|Delivery|Descuento familias numerosas|Para llevar|Cumpleaños en casa	true	11:00-23:00	11:00-00:00	11:00-23:00	11:00-00:00	false	false	false	false	false	false	false	false	false	false	
434	Granada Estación	Avda. Juan Pablo II, nº53	18014	Granada	958842879	37.202	-3.61538		Granada	GR	true	false	false	false	false	false				McAuto|Parking|Terraza|Minusválidos|Ticket|Delivery	true	12:00-00:00	12:00-00:00	12:00-00:00	12:00-00:00	false	false	false	false	false	true	12:00-00:00	12:00-00:00	12:00-00:00	12:00-00:00	
135	Valencia Centro	C/ Xátiva, 21	46002	Valencia	963526762	39.4673	-0.375776	valenciacentro.135@es.mcd.com	Valencia/València	V	true	false	false	false	false	false				Desayunos|Terraza|Minusválidos|Cumpleaños|Ticket|Delivery|McExpress|Descuento familias numerosas|Para llevar	true	08:00-00:00	08:00-00:00	09:00-00:00	09:00-00:00	true	08:00-00:00	08:00-01:00	09:00-00:00	09:00-00:00	false	false	false	false	false	false
363	Plaza de la Reina	Plaza de la Reina, nº15	46001	Valencia	963923591	39.4749	-0.375716	plazadelareina.363@es.mcd.com	Valencia/València	V	true	false	false	false	false	false				Desayunos|Terraza|Minusválidos|Cumpleaños|Ticket|Delivery|Descuento familias numerosas|Para llevar	true	10:00-23:30	10:00-00:00	10:00-00:00	10:00-00:00	false	false	false	false	false	false	false	false	false	false	false
16	Valencia - Novo Centro	Centro Comercial Novo Centro | Avda. Pío XII, nº 2 | Locales 52, 53, 54	46009	Valencia	963482784	39.4799	-0.390252	valencianovocentro.16@es.mcd.com	Valencia/València	V	true	false	ES4900810318100001686673	false	963482784	valencianovocentro.16@es.mcd.com	B-98965403	Cibus Dies SL	Ada/Pio XII,2 locales 52-53-54 46009 Valencia	McCafé|Desayunos|Parking|Terraza|Servicio a mesa|Minusválidos|Ticket|Delivery|Descuento familias numerosas|Para llevar|Cumpleaños en casa	true	09:30-23:00	09:30-23:30	11:30-23:30	09:30-23:00	false	false	false	false	false	false	false	false	false	false	vísperas  09:00 a 23:00 sábados de 10:00 a 23:00
101	McDonald's Saler 	Centro Comercial El Saler | Avda. Profesor Lopez Piñero, nº 16 | Local 7 y 81	46013	Valencia	963950821	39.4535	-0.354767	elsaler.101@es.mcd.com	Valencia/València	V	true	false	false	false	false	false	B97072565	Nine Divine SLU	Centro Comercial El Saler | Avda. Profesor Lopez Piñero, nº 16 | Local 7 y 81	McCafé|Play Place|Desayunos|Parking|Terraza|Minusválidos|Cumpleaños|Ticket|Delivery|Descuento familias numerosas|Para llevar	true	08:30-23:00	09:30-23:00	10:30-23:00	10:00-23:00	false	false	false	false	false	false	false	false	false	false	
449	Aqua	C.C. y Ocio Aqua Multiespacio | C/ Menorca, nº 19 - 2ª Planta | Locales 213-214	46023	Valencia	963311269	39.4567	-0.34567	aqua.449@es.mcd.com	Valencia/València	V	true	false	false	false	false	false				McCafé|Desayunos|Parking|Servicio a mesa|Signature|Delivery	true	11:00-00:00	11:00-00:00	10:00-00:00	11:00-00:00	false	false	false	false	false	false	false	false	false	false	false
59	McDonald's Gran Turia	Centro Comercial Gran Turia | Plaza de Europa, s/n	46014	Xirivella	963796261	39.4648	-0.414015	xirivella.59@es.mcd.com	Valencia/València	V	true	false	false	false	false	false	B40629164	Restaurante Sloop SLU	Centro Comercial Gran Turia | Plaza de Europa, s/n	Desayunos|Parking|Terraza|Minusválidos|Cumpleaños|Ticket|Delivery|Descuento familias numerosas|Para llevar	true	10:30-23:00	10:30-23:00	12:00-23:00	10:00-23:00	false	false	false	false	false	false	false	false	false	false	
271	McDonald's Mislata	C/ San Antonio s/n	46920	Mislata	963135176	39.4787	-0.426144		Valencia/València	V	true	false	false	false	false	false	B40629164	Restaurante Sloop SLU		McAuto|Play Place|Desayunos|Parking|Terraza|Minusválidos|Cumpleaños|Ticket|Delivery|Descuento familias numerosas|24H|Para llevar	true	11:00-23:00	11:00-23:00	11:00-23:00	11:00-23:00	false	false	false	false	false	true	11:00-00:00	11:00-00:00	11:00-00:00	11:00-00:00	
37	Sedavi	Centro Comercial Sedavi | Avda. de la Albufera, s/n	46910	Sedaví	963766589	39.4207	-0.377224	administración@millamcd.com	Valencia/València	V	true	false	false	false	false	false				McAuto|McCafé|Parking|Terraza|Signature|Minusválidos|Delivery|Descuento familias numerosas|Para llevar	true	10:00-23:00	10:00-00:00	12:00-23:30	12:00-23:30	false	false	false	false	false	true	10:00-23:30	10:00-00:30	12:00-00:00	12:00-00:00	false
404	Alfafar FS	Area Comercial Alfafar | Avda. Alcalde José Puertes, s/n	46910	Alfafar	963963191	39.4117	-0.38194	administracion@millamcd.com	Valencia/València	V	true	false	false	false	false	false				McAuto|McCafé|Parking|Terraza|Signature|Minusválidos|Delivery|Descuento familias numerosas|Para llevar	true	09:30-23:00	09:30-00:00	12:00-23:30	12:00-23:30	false	false	false	false	false	true	09:30-23:00	09:30-00:00	12:00-23:30	12:00-23:30	
306	Torrente	Polígono Industrial "El Molí"	46900	Torrente	961589628	39.4402	-0.456282		Valencia/València	V	true	false	false	false	false	false				McAuto|Desayunos|Parking|Terraza|Servicio a mesa|Signature|Minusválidos|Cumpleaños|Ticket|Delivery|Descuento familias numerosas|Para llevar	true	09:00-00:00	09:00-00:00	09:00-00:00	09:00-00:00	false	false	false	false	false	true	09:00-00:30	09:00-03:00	09:00-00:30	09:00-03:00	
381	KINEPOLIS PATERNA	Ctra. Valencia - Ademuz | Salidas 6 y 7 | Junto a Centro de Ocio Heron City	46980	Paterna	963903268	39.531	-0.442815	kinepolispaterna.381@es.mcd.com	Valencia/València	V	true	false	false	false	false	false				McAuto|Terraza|Signature|Minusválidos|Ticket|Delivery|Descuento familias numerosas	true	12:30-23:00	12:30-00:00	12:30-23:30	12:30-23:30	false	false	false	false	false	true	12:30-23:00	12:30-00:00	12:30-23:30	12:30-23:30	false
146	Aldaya	Centro Comercial "Bonaire" | Ctra N-III, salida 345	46960	Aldaya	961920429	39.4717	-0.487051		Valencia/València	V	true	false	false	false	false	false				McAuto|McCafé|Desayunos|Parking|Terraza|Minusválidos|Delivery|Descuento familias numerosas|Para llevar|Cumpleaños en casa	true	09:00-00:00	09:00-00:00	09:00-00:00	09:00-00:00	false	false	false	false	false	true	09:00-01:00	09:00-02:00	09:00-01:00	09:00-02:00	false
478	El Manar	Parque Comercial El Manar | Parcela AC-2-1 | Autovia V-21, Salida 9	46560	Massalfassar	961401359	39.5527	-0.303383	elmanar.478@es.mcd.com	Valencia/València	V	true	false	false	false	961401359	elmanar.478@es.mcd,com	B97972319	Family seven S.L.	carretera sagunto -puerto KM2	McAuto|McCafé|Play Place|Desayunos|Parking|Terraza|Servicio a mesa|Signature|Minusválidos|Cumpleaños|Delivery|Descuento familias numerosas|Para llevar|Cumpleaños en casa	true	10:00-23:30	10:00-00:00	10:00-23:30	10:00-00:00	false	false	false	false	false	true	10:00-23:30	10:00-00:00	10:00-23:30	10:00-00:00	
491	Torrent A7	Polígono Industrial El Toll-L¿Alberca | Parcela 84, Manzana 6	46900	Torrente	961577007	39.4201	-0.50552		Valencia/València	V	true	false	false	false	false	false				McAuto|Desayunos|Parking|Terraza|Servicio a mesa|Minusválidos|Ticket|Delivery|Descuento familias numerosas|Para llevar	true	09:00-23:30	09:00-00:30	09:00-23:30	09:00-00:30	false	false	false	false	false	true	09:00-00:00	09:00-01:00	09:00-00:00	09:00-01:00	false
144	Valencia El Osito	Centro Comercial El Osito | Ctra. Valencia-Ademuz, Km. 16	46183	L'Eliana	962750780	39.5791	-0.528751		Valencia/València	V	true	false	false	false	false	false				McAuto|Play Place|Desayunos|Parking|Terraza|Cumpleaños	true	12:30-22:30	12:30-23:30	12:30-22:30	12:30-22:30	false	false	false	false	false	true	12:30-22:30	12:30-23:30	12:30-22:30	12:30-22:30	false
356	sagunto	Ctra. Sagunto a Puerto Sagunto, Km 2 | (frente a Carrefour)	46500	Sagunto	962650173	39.6721	-0.251529	sagunto.356@es.mcd.com	Valencia/València	V	true	false	false	false	600873335	sagunto.356@es.mcd.com	b97343735	aznarzuriaga	crtra sagunto puerto km2	McAuto|McCafé|Play Place|Desayunos|Parking|Terraza|Servicio a mesa|Signature|Minusválidos|Cumpleaños|Delivery|Descuento familias numerosas|Para llevar|Cumpleaños en casa	true	11:00-23:30	11:00-00:00	11:00-00:00	11:00-00:00	false	false	false	false	false	true	11:00-23:30	11:00-00:00	11:00-00:00	11:00-00:00	false
323	McDonald's Cullera	Centro Comercial Carrefour Cullera | PRM 3	46400	Cullera	961738091	39.1792	-0.262077		Valencia/València	V	true	false	false	false	false	false	B98542996	Restaurante GreenFree		McAuto|McCafé|Play Place|Desayunos|Parking|Terraza|Minusválidos|Cumpleaños|Ticket|Delivery|Descuento familias numerosas|Para llevar	true	11:00-23:00	11:00-23:00	11:00-23:00	11:00-23:00	false	false	false	false	false	true	11:00-00:00	11:00-00:00	11:00-00:00	11:00-00:00	false
217	Alzira	Centro Comercial Carrefour | Ctra. de Albalat, s/n	46600	Alzira	962405100	39.1619	-0.430071	administración@millamcd.com	Valencia/València	V	true	false	false	false	false	false				McAuto|McCafé|Parking|Terraza|Signature|Minusválidos|Delivery|Descuento familias numerosas|Para llevar	true	11:00-23:00	11:00-00:00	12:00-23:30	12:00-23:30	false	false	false	false	false	true	11:00-23:30	11:00-00:30	12:00-00:00	12:00-00:00	false
346	McDonald's Gandia 	Avda. Blasco Ibañez, nº 4	46701	Gandía	962876063	38.9718	-0.169562		Valencia/València	V	true	false	false	false	false	false	B97072565	Nine Divine SLU		McAuto|McCafé|Play Place|Desayunos|Parking|Terraza|Servicio a mesa|Minusválidos|Cumpleaños|Ticket|Delivery|Descuento familias numerosas|Para llevar	true	11:00-23:00	11:00-23:00	11:00-23:00	11:00-23:00	false	false	false	false	false	true	11:00-00:00	11:00-00:00	11:00-00:00	11:00-00:00	
110	Castellón	Ciudad del Transporte | Manzana 12	12006	Castellón de la Plana	964253501	39.9783	-0.067977		Castellón/Castelló	CS	true	false	false	false	false	false				McAuto|Parking|Terraza|Servicio a mesa|Signature|Minusválidos|Delivery|Descuento familias numerosas|Para llevar	true	10:00-00:00	10:00-00:00	12:00-00:00	10:00-01:00	false	false	false	false	false	true	10:00-00:00	10:00-01:00	12:00-01:00	10:00-01:00	
444	Castellon Salera	Centro Comercial Castellón Salera | Ctra. N-340, Km. 64,05 | Local A-17	12006	Castellón de la Plana	964245551	39.9791	-0.063021	castellonsalera.444@es.mcd.com	Castellón/Castelló	CS	true	false	false	false	false	false				Parking|Servicio a mesa|Signature|Minusválidos|Delivery|Descuento familias numerosas|Para llevar|Cargador coche eléctrico	true	12:00-22:30	12:00-23:00	12:00-22:30	12:00-23:00	false	false	false	false	false	false	false	false	false	false	
421	Castellón Carrefour	Avda. del Mar, s/n | Esquina Camino Caminá | Frente a C.C. Carrefour	12003	Castellón de la Plana	964270015	39.9825	-0.022844		Castellón/Castelló	CS	false	false	false	false	false	false				Play Place|Desayunos|Parking|Cumpleaños	false	false	false	false	false	false	false	false	false	false	false	false	false	false	false	false
472	Ondara	Centro Comercial Portal de la Marina | C/ Costa Blanca, s/n	03760	Ondara	966477450	38.8182	0.023706	ondara.472@es.mcd.com	Alicante/Alacant	A	true	false	false	false	false	false				McAuto|McCafé|Desayunos|Parking|Terraza|Servicio a mesa|Signature	true	11:00-23:00	11:00-23:00	12:30-23:00	12:30-23:00	false	false	false	false	false	true	11:00-23:00	11:00-23:00	12:30-23:00	12:30-23:00	false
191	Denia	Avda. Negreals, nº 13 | Ctra. Denia a Ondara	03700	Denia	966430513	38.839	0.095204		Alicante/Alacant	A	true	false	false	false	false	false				McAuto|McCafé|Play Place|Parking|Terraza|Servicio a mesa|Signature|Minusválidos|Delivery	true	12:00-00:00	12:00-00:00	12:00-00:00	12:00-00:00	false	false	false	false	false	true	12:00-00:00	12:00-01:00	12:00-00:00	12:00-01:00	false
261	Javea	José Espronceda, 2	03730	Jávea	965794850	38.7883	0.172565		Alicante/Alacant	A	true	false	false	false	false	false				McAuto|McCafé|Play Place|Parking|Terraza|Servicio a mesa|Signature|Delivery	true	12:00-00:00	12:00-00:00	12:00-00:00	12:00-00:00	false	false	false	false	false	true	12:00-00:00	12:00-01:00	12:00-00:00	12:00-01:00	false
47	Sevilla Delicias	Pº de las Delicias, nº 5	41001	Sevilla	954562095	37.3816	-5.99514	sevilladelicias.47@es.mcd.com	Sevilla	SE	true	false	false	false	false	false	B26511527	LiañoRuiz II, S.L.	Pso. de las Delicias,  5 - 41001 Sevilla	McCafé|Desayunos|Terraza|Signature|Minusválidos|Cumpleaños|Ticket|Delivery|McExpress|Descuento familias numerosas	true	12:00-01:00	12:00-01:00	12:00-01:00	12:00-01:00	true	12:00-01:00	12:00-01:00	12:00-01:00	12:00-01:00	false	false	false	false	false	
324	República Argentina	Avda. República Argentina, 25	41011	Sevilla	954990756	37.3778	-6.00176	republicaargentina.324@es.mcd.com	Sevilla	SE	true	false	false	false	false	false			null	Play Place|Desayunos|Cumpleaños|Delivery	true	12:00-00:00	12:00-00:00	12:00-00:00	12:00-00:00	false	false	false	false	false	false	false	false	false	false	false
203	McDonald`s Plaza de Armas	Centro Comercial "Plaza de Armas" | Local C-44	41001	Sevilla	954908827	37.3913	-6.00218	plazadearmas.203@es.mcd.com	Sevilla	SE	true	false	false	false	false	false	B26511527	LiañoRuiz II, S.L. 	Pso. de las Delicias, 5  - 41001 Sevilla	Parking|Terraza|Minusválidos|Cumpleaños|Ticket|Delivery|McExpress|Descuento familias numerosas|Para llevar	true	12:00-00:00	12:00-00:00	12:00-00:00	12:00-00:00	true	00:00-01:00	00:00-02:00	00:00-01:00	00:00-02:00	false	false	false	false	false	false
36	Sevilla-La Campana	C/ La Campana, nº 5	41004	Sevilla	954226483	37.3925	-5.99502	sevillalacampana.36@es.mcd.com	Sevilla	SE	true	false	false	false	false	false				Desayunos|Cumpleaños|Delivery	true	12:00-01:00	12:00-01:00	12:00-01:00	12:00-01:00	false	false	false	false	false	false	false	false	false	false	false
142	SEVILLA NERVION	Avenida Luis de Morales, s/n | Centro Comercial Nervion Plaza	41018	Sevilla	954420431	37.3838	-5.97255	sevillanervion.142@es.mcd.com	Sevilla	SE	true	false	ES6201826000160201755297	false	954420431	sevillanervion.142@es.mcd.com	B90418955	CSL RESTAURANTES PENINSULARES SLU	Avda. Luis de Morales, s/n (C.c. Nervión Plaza)	Minusválidos|Ticket|Delivery|Descuento familias numerosas|Para llevar|Cumpleaños en casa	true	12:00-00:00	12:00-00:00	12:00-00:00	12:00-00:00	false	false	false	false	false	false	false	false	false	false	
226	Camas	Centro Comercial Carrefour | C/ Poeta Muñoz San Roman, s/n	41900	Camas	954394241	37.3909	-6.02972		Sevilla	SE	true	false	false	false	954394241	camas.226@es.mcd.com	45154np0	nonono	sdjhbcsdfkjhvsdkhsvgd	McAuto|Play Place|Parking|Terraza|Minusválidos|Ticket|Delivery|Descuento familias numerosas|Para llevar|Cumpleaños en casa	true	12:30-00:00	12:30-01:00	12:30-00:00	12:30-00:30	false	false	false	false	false	true	12:30-00:00	12:30-01:00	12:30-00:00	12:30-01:00	false
51	Sevilla Los Arcos	Centro Comercial Los Arcos | Avda. de Andalucía, s/n | Esquina Ronda del Tamarguillo	41006	Sevilla	954254179	37.388	-5.96079	sevillalosarcos.51@es.mcd.com	Sevilla	SE	true	false	false	false	false	false				McCafé|Parking|Terraza|Minusválidos|Ticket|Delivery|Descuento familias numerosas|Para llevar	true	13:00-23:30	13:00-00:00	13:00-23:30	13:00-00:00	false	false	false	false	false	false	false	false	false	false	false
102	Aljarafe	Centro Comercial Aljarafe | Ctra. SE 617 | Polígono Industrial El Manchón	41940	Tomares	954151574	37.3739	-6.03125		Sevilla	SE	true	false	false	false	false	false				McAuto|McCafé|Play Place|Parking|Terraza|Servicio a mesa|Signature|Minusválidos|Ticket|Delivery|Descuento familias numerosas|Para llevar|Cumpleaños en casa	true	12:30-00:00	12:30-01:00	12:30-01:00	12:30-01:00	false	false	false	false	false	true	12:30-00:00	12:30-01:00	12:30-01:00	12:30-01:00	false
502	McDonald's Gelves	Ctra. Sevilla - Coria del Rio, Km. 2 | Avda. de Europa s/n	41920	San Juan de Aznalfarache	955409774	37.3549	-6.02697		Sevilla	SE	true	false	false	false	false	false	B87012340	GELAND FOODS SL		McAuto|Parking|Terraza|Servicio a mesa|Minusválidos|Ticket|Delivery|Descuento familias numerosas|Para llevar	true	13:00-00:00	13:00-00:00	13:00-00:00	13:00-00:00	false	false	false	false	false	true	13:00-00:00	13:00-01:00	13:00-01:00	13:00-01:00	
273	Sevilla San Pablo	C.C. Continente "San Pablo" | C/ Jose Jesus Garcia Diaz, nº1 | Local 48	41020	Sevilla	954109051	37.4081	-5.93985	sevillasanpablo.273@es.mcd.com	Sevilla	SE	true	false	false	false	false	false	B85241230	Barman Restaurantes SL	C/ José Jesús García Díaz, Nº1, Local 48	Parking|Terraza|Servicio a mesa|Ticket|Delivery|McExpress|Descuento familias numerosas|Para llevar|Cumpleaños en casa	true	12:30-00:00	12:30-00:00	12:30-00:00	12:30-00:00	true	-	-	-	-	false	false	false	false	false	false
233	Sevilla Este	Avda. Alcalde Luis Uruñuela, s/n | (Frente al Palacio de Congresos)	41020	Sevilla	954518228	37.4057	-5.93379		Sevilla	SE	true	false	false	false	954518228	sevillaeste.233@es.mcd.com	A28586097	RESTAURANTES McDONALD´S SAU	C / SOMERA 5. 28023 MADRID	McAuto|McCafé|Parking|Terraza|Servicio a mesa|Delivery|Descuento familias numerosas|Para llevar|Cumpleaños en casa	true	11:30-23:30	11:30-00:00	11:30-23:30	11:30-00:00	false	false	false	false	false	true	11:30-00:00	11:30-04:00	11:30-00:00	11:30-04:00	weekend
290	Mairena	Camino de Tomares | Parcela nº 1	41927	Mairena de Aljarafe	954186249	37.3518	-6.05708		Sevilla	SE	true	false	false	false	false	false				McAuto|Play Place|Parking|Terraza|Servicio a mesa|Signature|Ticket|Delivery|Descuento familias numerosas|Para llevar|Cumpleaños en casa	true	12:00-00:00	12:00-00:00	12:00-00:00	12:00-00:00	false	false	false	false	false	true	12:00-00:00	12:00-00:00	12:00-00:00	12:00-00:00	MUY IMPORTANTE. ESTE RESTAURANTE EMPEZARÁ CON ESTOS HORARIOS EL DÍA 29 DE JUNIO MIL GRACIAS. POR FAVOR NO ACTUALIZAR ANTES DEL LUNES 29 DE JUNIO MIL GRACIAS
344	Bormujos	Centro Comercial Megaocio Aljarafe | C/ Río Nalón esq. C/ Aceitunillo | Autovía Sevilla-Huelva	41930	Bormujos	954789079	37.38	-6.07218	bormujos.344@es.mcd.com	Sevilla	SE	true	false	false	false	false	false				Parking|Terraza|Minusválidos|Ticket|Delivery|Descuento familias numerosas|Para llevar	true	13:00-23:30	13:00-00:00	13:00-00:00	13:00-00:00	false	false	false	false	false	false	false	false	false	false	false
184	Dos Hermanas	Avda. Doctor Fleming, s/n	41700	Dos Hermanas	955678798	37.2825	-5.93624		Sevilla	SE	true	false	false	false	955678798	doshermanas.184@es.mcd.com	A28586097	Restaurantes McDonald´s SAU	C / SOMERA 5 . 28023 MADRID.	McAuto|McCafé|Parking|Terraza|Servicio a mesa|Delivery|Descuento familias numerosas|Para llevar|Cumpleaños en casa	true	11:30-23:30	11:30-00:00	11:30-23:30	11:30-00:00	false	false	false	false	false	true	11:30-00:00	11:30-04:00	11:30-00:00	11:30-04:00	
555	Dos Hermanas Circunvalación	Ronda Adolfo Suarez, nº 39 | Junto a Lidl	41704	Dos Hermanas	954722683	37.294436	-5.910608	doshermanascircunvalacion.555@es.mcd.com	Sevilla	SE	true	false	false	false	954722683	doshermanascircunvalacion.555@es.mcd.com	A28586097	RESTAURANTES McDONALD´S SAU	C/ SOMERA 5. 28023 MADRID	McAuto|McCafé|Parking|Terraza|Servicio a mesa|Delivery|Descuento familias numerosas|Para llevar|Cumpleaños en casa	true	12:30-23:30	12:30-00:00	12:30-23:30	12:30-00:00	false	false	false	false	false	true	12:30-00:00	12:30-00:30	12:30-00:00	12:30-00:30	false
442	Alcalá de Guadaíra	Parque Guadaira | Frente C.C. Los Alcores | Autovia A-92, Km 7.8	41500	Alcalá de Guadaíra	954101791	37.3532	-5.85886		Sevilla	SE	true	false	false	false	954101791	alcaladeguadaira.442@es.mcd.com	A28586097	RESTAURANTES McDONALD´S SAU	C/ SOMERA 5. 28023 MADRID.	McAuto|McCafé|Parking|Terraza|Servicio a mesa|Delivery|Descuento familias numerosas|Para llevar|Cumpleaños en casa	true	11:30-23:00	11:30-00:00	11:30-23:00	11:30-00:00	false	false	false	false	false	true	11:30-00:00	11:30-00:30	11:30-00:00	11:30-00:30	false
531	McDonald's Utrera	Ctra. Arahal - Utrera, km. 77 | Cuesta del Merendero	41710	Utrera	955835103	37.1741	-5.77404	utrera.531@es.mcd.com	Sevilla	SE	true	false	false	false	false	false				McAuto|Parking|Terraza|Minusválidos|Ticket|Delivery|Descuento familias numerosas|Para llevar	true	13:00-00:00	13:00-00:00	13:00-00:00	13:00-00:00	false	false	false	false	false	true	13:00-00:30	13:00-01:30	13:00-00:30	13:00-01:30	
309	Sanlúcar de Barrameda	Centro Comercial "Cobreros" | Ctra. de Sanlúcar a Chipiona, km.1	11540	Sanlúcar de Barrameda	956385342	36.7706	-6.35717		Cádiz	CA	true	false	false	false	false	false				McAuto|Terraza	true	12:00-00:00	12:00-00:00	12:00-00:00	12:00-00:00	false	false	false	false	false	true	12:00-00:00	12:00-02:00	12:00-00:00	12:00-00:00	false
176	JEREZ NORTE	Centro Comercial Jerez Norte | Avenida de Europa, s/n	11405	Jerez de la Frontera	956303315	36.6957	-6.11366	jereznorte.176@es.mcd.com	Cádiz	CA	true	false	false	false	false	false	B11677713	PELSABA SLU	CALLE HABANA 25. 11407 JEREZ	Parking|Terraza|Minusválidos|Cumpleaños|Ticket|Delivery|Descuento familias numerosas|Para llevar	true	11:30-00:00	11:30-00:00	11:30-00:00	11:30-00:00	false	false	false	false	false	false	false	false	false	false	
525	LUZ SHOPPING	Parcela L21 C Area 7 | Ctra. del Calvario	11400	Jerez de la Frontera	956741677	36.693887	-6.160197	jerezluzshopping.525@es.mcd.com	Cádiz	CA	true	false	false	false	false	false	B 11677713	PELSABA SLU	CALLE HABANA 25. 11407 JEREZ	McAuto|Play Place|Desayunos|Parking|Terraza|Minusválidos|Cumpleaños|Ticket|Delivery|Descuento familias numerosas|24H|Para llevar	true	10:00-00:00	10:00-01:00	10:00-00:00	10:00-00:00	false	false	false	false	false	true	00:00-00:00	00:00-00:00	00:00-00:00	00:00-00:00	all
150	SUR	Centro Comercial Carrefour Sur | Locales 33-34 | Ctra. Nacional IV, km 641	11408	Jerez de la Frontera	956140095	36.6735	-6.1495	jerez2.150@es.mcd.com	Cádiz	CA	true	false	false	false	false	false	B 11677713	PELSABA SLU	CALLE HABANA 25. 11407 JEREZ DE LA FRONTERA	Parking|Terraza|Minusválidos|Cumpleaños|Ticket|Delivery|Descuento familias numerosas|Para llevar	true	11:30-23:30	11:30-23:30	11:30-23:30	11:30-23:30	false	false	false	false	false	false	false	false	false	false	
496	Huelva Norte	Avenida Fuerzas Armadas, s/n	21007	Huelva	959224288	37.269192	-6.918146		Huelva	H	true	false	false	false	false	false	B21494828	Business Sandwiches Restaurant SLU	null	McAuto|Terraza|Servicio a mesa|Minusválidos|Ticket|Delivery|Descuento familias numerosas|Para llevar	true	12:00-00:00	12:00-00:00	12:00-00:00	12:00-00:00	false	false	false	false	false	true	12:00-01:00	12:00-01:00	12:00-01:00	12:00-01:00	
116	Huelva Puente del Odiel	Avda. Molino de la Vega s/n	21002	Huelva	959252435	37.2666	-6.95831		Huelva	H	true	false	false	false	false	false	B21288386	Meal Services & B. SLU		McAuto|McCafé|Parking|Terraza|Servicio a mesa|Signature|Minusválidos|Ticket|Delivery|Descuento familias numerosas|Para llevar	true	11:30-00:00	11:30-00:00	11:30-00:00	11:30-00:00	false	false	false	false	false	true	11:30-02:00	11:30-03:00	11:30-02:00	11:30-03:00	
58	Puerto de Santa María	Centro Comercial El Paseo | Ctra. Nacional IV, Km. 653 | Local B-18	11500	Puerto de Santa María	956855033	36.616	-6.2113	puertodesantamaria.58@es.mcd.com	Cádiz	CA	true	false	false	false	false	false				McAuto|Play Place|Terraza|Cumpleaños|Delivery|Descuento familias numerosas|Para llevar	true	11:00-23:30	11:00-00:00	12:00-23:30	12:00-23:30	false	false	false	false	false	true	11:00-00:00	11:00-01:00	12:00-00:00	12:00-00:00	
288	McDONALD'S VALDELAGRANA - BAHIA MAR	Parque Comercial "Bahia Mar" | C/ Rio Guadarranque , nº 15	11500	Puerto de Santa María	956560392	36.5937	-6.22138		Cádiz	CA	true	false	false	false	false	false			null	McAuto|Play Place|Parking|Terraza|Minusválidos|Cumpleaños|Delivery|Para llevar	true	12:00-01:00	12:00-01:00	12:00-01:00	12:00-01:00	false	false	false	false	false	true	12:00-01:00	12:00-01:00	12:00-01:00	12:00-01:00	
430	Murcia Infantes	Centro Comercial Eroski Infante | Avda. Lope de Vega, s/n	30011	Murcia	968254233	37.9816	-1.11288	murciainfantes.430@es.mcd.com	Murcia	MU	true	false	false	false	968254233	murciainfantes.430@es.mcd.com	B73354334	Infantes de Servicios Rapidos	Avenida del Rocio, 16, 2ºD	McAuto|McCafé|Parking|Terraza|Servicio a mesa|Minusválidos|Delivery|Descuento familias numerosas|Para llevar|Cumpleaños en casa	true	10:00-00:30	10:00-01:00	10:00-01:00	10:00-01:00	false	false	false	false	false	true	10:00-00:30	10:00-01:00	10:00-01:00	10:00-01:00	
455	McDonald's Nueva Condomina	Centro Comercial Nueva Condomina | Poligono Nueva Condomina, Local A 27-28 | Ctra. A-7, Km 760	30110	Cabezo de Torres	968813450	38.0408	-1.1489	nuevacondomina.455@es.mcd.com	Murcia	MU	true	false	false	false	958813450	Nuevacondomina.455@es.mcd.com	B01185123	Resbat, s.l.	Autovía a7 km 760 30110 Murcia	Parking|Terraza|Signature|Minusválidos|Cumpleaños|Descuento familias numerosas|Para llevar|Cumpleaños en casa	true	11:00-23:00	11:00-23:00	00:00-00:00	11:00-23:00	false	false	false	false	false	false	false	false	false	false	
494	Alcantarilla	Poligono Comercial Oeste | Autovia MU-30 | Alcantarilla-El Palmar	30835	Sangonera La Seca	968818194	37.9565	-1.217	alcantarilla.494@es.mcd.com	Murcia	MU	true	false	false	false	968818194	alcantarilla.494@es.mcd.com	B73640112	Alcantarilla de Servicios Rapidos 	Avenida del Rocio, 16, 2ºD	McAuto|McCafé|Parking|Terraza|Servicio a mesa|Minusválidos|Delivery|Descuento familias numerosas|Para llevar|Cumpleaños en casa	true	10:00-00:00	10:00-01:00	10:00-00:00	10:00-01:00	false	false	false	false	false	true	10:00-00:00	10:00-01:00	10:00-00:00	10:00-01:00	
413	Molina de Segura	Centro Comercial Eroski | Ctra. Madrid-Cartagena, s/n | Pol. Ind. "El Tapiado"	30500	Molina de Segura	968645870	38.0644	-1.21961	molinadesegura.413@es.mcd.com	Murcia	MU	true	false	false	false	968645870	molinadesegura.413@es.mcd.com	B73215451	Del Molino de Servicios Rapidos SL	Avenida del Rocio, 16, 2ºD	McAuto|McCafé|Parking|Terraza|Servicio a mesa|Minusválidos|Delivery|Descuento familias numerosas|Para llevar|Cumpleaños en casa	true	10:00-00:00	10:00-01:00	10:00-00:00	10:00-01:00	false	false	false	false	false	true	10:00-00:00	10:00-01:00	10:00-00:00	10:00-01:00	
465	San Javier	Centro Comercial Dos Mares | Salida 777, AP-7 | Local A-16, 1ª Planta	30730	San Javier	968547398	37.8206	-0.81255	sanjavier.465@es.mcd.com	Murcia	MU	true	false	false	false	false	false				Parking|Terraza|Minusválidos|Descuento familias numerosas|Para llevar	true	12:00-22:30	12:00-23:00	12:00-22:30	12:00-23:00	false	false	false	false	false	false	false	false	false	false	false
506	Torrevieja Punta Marina	Centro Comercial Punta Marina | Ctra. N.332, Km. 54	03189	Orihuela Costa	966799591	37.9492	-0.71432		Alicante/Alacant	A	true	false	false	false	false	false				McAuto|McCafé|Desayunos|Parking|Terraza|Servicio a mesa|Signature|Minusválidos|Delivery|Descuento familias numerosas|Para llevar	true	08:00-00:00	08:00-00:00	08:00-00:00	08:00-00:00	false	false	false	false	false	true	08:00-00:00	08:00-00:00	08:00-00:00	08:00-00:00	false
134	Torrevieja	Carretera Comarcal Crevillente nº 3321, | s/n, frente a C.C. Habaneras	03184	Torrevieja	966708854	37.9931	-0.688831		Alicante/Alacant	A	true	false	false	false	false	false				McAuto|McCafé|Desayunos|Parking|Terraza|Servicio a mesa|Signature|Minusválidos|Delivery|Descuento familias numerosas|24H|Para llevar	true	08:00-00:00	08:00-00:00	08:00-00:00	08:00-00:00	false	false	false	false	false	true	00:00-00:00	00:00-00:00	00:00-00:00	00:00-00:00	all
510	Cartagena Mandarache	Centro Comercial Mandarache | C/ Ronda Ciudad de la Union, s/n | Parcela 1	30204	Cartagena	968517176	37.617	-0.98391		Murcia	MU	true	false	false	false	false	false				McAuto|Parking|Signature|Delivery|Descuento familias numerosas|Para llevar	true	12:00-01:00	12:00-01:00	12:00-01:00	12:00-01:00	false	false	false	false	false	true	12:00-01:00	12:00-03:00	12:00-01:00	12:00-03:00	false
462	Cartagena Espacio	Centro Comercial Espacio Mediterraneo | C/ Londres, s/n - Local 2.03 | Polígono Industrial Cabezo Beaza	30395	Cartagena	968197301	37.6263	-0.950353	espaciomediterraneo.462@es.mcd.com	Murcia	MU	true	false	false	false	false	false				McCafé|Desayunos|Parking|Terraza|Signature|Minusválidos|Descuento familias numerosas|Para llevar	true	11:00-23:00	11:00-23:30	11:00-23:00	11:00-23:30	false	false	false	false	false	false	false	false	false	false	false
415	EROSKI	Centro Comercial Aljub | C/ Jacarilla, s/n - Locales 10-11	03205	Elche	965460512	38.2639837	-0.7203199	elcheeroski.415@es.mcd.com	Alicante/Alacant	A	true	false	false	false	false	false	B15802002	Galdana restaurantes S.L.U	null	McCafé|Desayunos|Parking|Signature|Minusválidos|Cumpleaños|Ticket|Delivery|Descuento familias numerosas	true	13:00-22:00	13:00-22:00	13:00-22:00	13:00-22:00	false	false	false	false	false	false	false	false	false	false	
602	CARRUS	C/ Almansa, nº68 | esq. C/ Monovar	03206	Elche	965469837	38.278145	-0.720977	elchecarrus.602@es.mcd.com	Alicante/Alacant	A	true	false	false	false	false	false	B15802002	GALDANA RESTAURANTES S.L.U	C/ALMANSA 68	McAuto|Parking|Terraza|Servicio a mesa|Minusválidos|Ticket|Delivery|Descuento familias numerosas|Para llevar	true	12:00-23:30	12:00-00:00	12:00-23:30	12:00-23:30	false	false	false	false	false	true	12:00-23:30	12:00-00:00	12:00-23:30	12:00-23:30	
403	McDONALDS ELCHE NORTE	Ctra. N-340 Alicante a Murcia | Sector E-25 | Pol. Ind. Altabix	03203	Elche	966614414	38.2728	-0.668774		Alicante/Alacant	A	true	false	false	false	false	false	B-15802002	Galdana Restaurantes S.L.U		McAuto|Parking|Terraza|Servicio a mesa|Minusválidos|Ticket|Delivery|Descuento familias numerosas|Para llevar	true	12:00-22:00	12:00-22:00	12:00-22:00	12:00-22:00	false	false	false	false	false	true	12:00-22:00	12:00-22:00	12:00-22:00	12:00-22:00	
410	SANTA POLA	Carretera de Elche, nº 9	03130	Santa Pola	965411864	38.1971	-0.563201		Alicante/Alacant	A	true	false	false	false	false	false	B-42550392	PANTIN INVESTMENTS, S.L		McAuto|Parking|Terraza|Servicio a mesa|Signature|Minusválidos|Ticket|Delivery|Descuento familias numerosas|Para llevar	true	12:00-00:00	12:00-00:00	12:00-00:00	12:00-00:00	false	false	false	false	false	true	12:00-00:00	12:00-00:00	12:00-00:00	12:00-00:00	no
533	McDonald's Lorca	C/ Antonio de Ulloa, nº 9 | Ctra. Nacional A-7, Salida 636 | Pol. Los Peñones	30800	Lorca	968471438	37.6576	-1.7063	lorca.533@es.mcd.com	Murcia	MU	true	false	false	false	968471438	Lorca.533@es.mcd.com	B01185123	Resbat, s.l.	Autovía A7 Km 760	McAuto|McCafé|Play Place|Parking|Terraza|Servicio a mesa|Signature|Minusválidos|Cumpleaños|Delivery|Descuento familias numerosas|Para llevar|Cumpleaños en casa	true	12:00-23:30	12:00-00:00	12:00-23:30	12:00-00:00	false	false	false	false	false	true	12:00-23:30	12:00-00:00	12:00-23:30	12:00-00:00	
197	Petrer-Elda	Avenida del Guirney, nº 8	03610	Petrer	966951864	38.4891	-0.777316		Alicante/Alacant	A	true	false	false	false	false	false				McAuto|McCafé|Desayunos|Parking|Terraza|Servicio a mesa|Signature|Minusválidos|Delivery|Descuento familias numerosas|Para llevar	true	09:00-00:00	09:00-00:00	09:00-00:00	09:00-00:00	false	false	false	false	false	true	09:00-00:00	09:00-01:30	09:00-00:30	09:00-01:30	
408	Puerta de Alicante	C.C. Puerta de Alicante | Avda. Neptuno. Planta Ocio | Local 18	03007	Alicante	965100635	38.342	-0.517522	puertadealicante.408@es.mcd.com	Alicante/Alacant	A	true	false	false	false	false	false	B54939806	PENIEL 408 S.L.		Parking|Terraza|Minusválidos|Ticket|Delivery|Descuento familias numerosas|Para llevar	true	12:00-23:00	12:00-00:00	12:00-00:00	12:00-00:00	false	false	false	false	false	false	false	false	false	false	false
543	Doctor Rico	C/ Ciudad Real, nº 28	03005	Alicante	672273503	38.354787	-0.497944	alicantedoctorrico.543@es.mcd.com	Alicante/Alacant	A	true	false	false	false	672273503	alicantedoctorrico.543@es.mcd.com	B 54675012	UNO PLUS RESTAURACION SLU	Calle Ciudad Real 28 Alicante 03005	McAuto|McCafé|Desayunos|Parking|Terraza|Servicio a mesa|Minusválidos|Ticket|Delivery|Descuento familias numerosas|Para llevar|Cumpleaños en casa	true	09:00-23:00	11:00-23:00	11:00-23:00	11:00-23:00	false	false	false	false	false	true	09:00-23:00	11:00-23:00	11:00-23:00	11:00-23:00	Viernes 09:00 a 00:00 horas
12	Alicante Explanada	Explanada de España, nº 8	03002	Alicante	965214751	38.3437	-0.482519	alicante.12@es.mcd.com	Alicante/Alacant	A	true	false	false	false	965214751	alicante.12@es.mcd.com	B 54895263	ALICANTE 21 SLU	Explanada  de España 8 Alicante 03002	Terraza|Ticket|Delivery|Descuento familias numerosas|Para llevar|Cumpleaños en casa	true	11:00-23:00	11:00-23:00	11:00-23:00	11:00-23:00	false	false	false	false	false	false	false	false	false	false	
221	Alicante Universidad	Avda. Universidad s/n | Polígono Industrial Rabasa	03009	Alicante	965170923	38.3746	-0.507475	alicanteuniversidad.221@es.mcd.com	Alicante/Alacant	A	true	false	false	false	965170923	alicanteuniversidad.221@es.mcd.com	B 26353177	ALC HOSTELERIA S.L.	Avda. Universidad s/n  03009 Alicante	McAuto|McCafé|Desayunos|Parking|Terraza|Servicio a mesa|Minusválidos|Ticket|Delivery|Descuento familias numerosas|Para llevar|Cumpleaños en casa	true	10:30-23:00	11:00-23:00	11:00-23:00	11:00-23:00	false	false	false	false	false	true	10:30-23:00	11:00-23:00	11:00-23:00	11:00-23:00	Viernes 10:30 a 00:00 horas
461	Plaza Mar II	Centro Comercial Plaza Mar II | Avda. de Denia s/n | Locales R1/R2	03016	Alicante	965269226	38.3546	-0.471576	plazamar.461@es.mcd.com	Alicante/Alacant	A	true	false	false	false	false	false				McCafé|Desayunos|Parking|Terraza|Servicio a mesa|Signature|Minusválidos|Delivery|Descuento familias numerosas|Para llevar	true	09:00-23:30	09:00-23:30	11:00-23:30	11:00-23:30	false	false	false	false	false	false	false	false	false	false	false
610	Alicante Vistahermosa	Avda. Antonio Ramos Carratalá, nº 26	03016	Alicante	965155035	38.369537	-0.463993	alicantevistahermosa.610@es.mcd.com	Alicante/Alacant	A	true	false	false	false	false	false				McAuto|Parking|Terraza|Servicio a mesa|Signature|Delivery|Descuento familias numerosas|Para llevar	true	12:00-00:00	12:00-00:00	12:00-00:00	12:00-00:00	false	false	false	false	false	true	12:00-00:00	12:00-01:00	12:00-00:00	12:00-00:00	false
72	Alicante Santa Faz	Avda. de Denia, nº 175	03559	Alicante	965261970	38.383	-0.451681	santafaz.72@es.mcd.com	Alicante/Alacant	A	true	false	false	false	false	false	B63266274	FRASAMARAL S:L:		McAuto|Desayunos|Parking|Terraza|Minusválidos|Ticket|Delivery|Descuento familias numerosas|Para llevar	true	11:00-00:00	11:00-00:00	11:00-00:00	11:00-00:00	false	false	false	false	false	true	11:00-00:00	11:00-02:00	11:00-02:00	11:00-01:00	
33	Playa de San Juan	Avda. Niza, nº 12	03540	Playa de San Juan	965151944	38.3704	-0.410576	sanjuan.33@es.mcd.com	Alicante/Alacant	A	true	false	false	false	false	false	B63266274	FRASAMARAL S.L.		Terraza|Ticket|Delivery|Descuento familias numerosas|Para llevar	true	12:00-23:00	12:00-00:00	12:00-23:00	12:00-00:00	false	false	false	false	false	false	false	false	false	false	false
167	San Juan Cines	Ctra. Nacional 332, Km.114,75	03550	San Juan de Alicante	965654749	38.3983	-0.42884	sanjuancines.167@es.mcd.com	Alicante/Alacant	A	true	false	false	false	965654749	sanjuancines.167@es.mcd.com	B 26353177	ALC HOSTELERIA S.L.	Avd.  Universidad  s/n 03009 Alicante	Parking|Terraza|Minusválidos|Ticket|Delivery|Descuento familias numerosas|Para llevar|Cumpleaños en casa	true	11:00-23:00	11:00-23:00	11:00-23:00	11:00-23:00	false	false	false	false	false	false	false	false	false	false	
495	Alcoy	C/ Valencia, nº 15-A	03804	Alcoy	965336568	38.7126	-0.466262		Alicante/Alacant	A	true	false	false	false	false	false				McAuto|Parking|Terraza|Delivery|Para llevar	true	12:00-23:00	12:00-23:00	12:00-23:00	12:00-23:00	false	false	false	false	false	true	12:00-23:00	12:00-23:00	12:00-23:00	12:00-23:00	false
12	Alicante Explanada	Explanada de España, nº 8	03002	Alicante	965214751	38.3437	-0.482519	alicante.12@es.mcd.com	Alicante/Alacant	A	true	false	false	false	965214751	alicante.12@es.mcd.com	B 54895263	ALICANTE 21 SLU	Explanada  de España 8 Alicante 03002	Terraza|Ticket|Delivery|Descuento familias numerosas|Para llevar|Cumpleaños en casa	true	11:00-23:00	11:00-23:00	11:00-23:00	11:00-23:00	false	false	false	false	false	false	false	false	false	false	
461	Plaza Mar II	Centro Comercial Plaza Mar II | Avda. de Denia s/n | Locales R1/R2	03016	Alicante	965269226	38.3546	-0.471576	plazamar.461@es.mcd.com	Alicante/Alacant	A	true	false	false	false	false	false				McCafé|Desayunos|Parking|Terraza|Servicio a mesa|Signature|Minusválidos|Delivery|Descuento familias numerosas|Para llevar	true	09:00-23:30	09:00-23:30	11:00-23:30	11:00-23:30	false	false	false	false	false	false	false	false	false	false	false
408	Puerta de Alicante	C.C. Puerta de Alicante | Avda. Neptuno. Planta Ocio | Local 18	03007	Alicante	965100635	38.342	-0.517522	puertadealicante.408@es.mcd.com	Alicante/Alacant	A	true	false	false	false	false	false	B54939806	PENIEL 408 S.L.		Parking|Terraza|Minusválidos|Ticket|Delivery|Descuento familias numerosas|Para llevar	true	12:00-23:00	12:00-00:00	12:00-00:00	12:00-00:00	false	false	false	false	false	false	false	false	false	false	false
221	Alicante Universidad	Avda. Universidad s/n | Polígono Industrial Rabasa	03009	Alicante	965170923	38.3746	-0.507475	alicanteuniversidad.221@es.mcd.com	Alicante/Alacant	A	true	false	false	false	965170923	alicanteuniversidad.221@es.mcd.com	B 26353177	ALC HOSTELERIA S.L.	Avda. Universidad s/n  03009 Alicante	McAuto|McCafé|Desayunos|Parking|Terraza|Servicio a mesa|Minusválidos|Ticket|Delivery|Descuento familias numerosas|Para llevar|Cumpleaños en casa	true	10:30-23:00	11:00-23:00	11:00-23:00	11:00-23:00	false	false	false	false	false	true	10:30-23:00	11:00-23:00	11:00-23:00	11:00-23:00	Viernes 10:30 a 00:00 horas
72	Alicante Santa Faz	Avda. de Denia, nº 175	03559	Alicante	965261970	38.383	-0.451681	santafaz.72@es.mcd.com	Alicante/Alacant	A	true	false	false	false	false	false	B63266274	FRASAMARAL S:L:		McAuto|Desayunos|Parking|Terraza|Minusválidos|Ticket|Delivery|Descuento familias numerosas|Para llevar	true	11:00-00:00	11:00-00:00	11:00-00:00	11:00-00:00	false	false	false	false	false	true	11:00-00:00	11:00-02:00	11:00-02:00	11:00-01:00	
33	Playa de San Juan	Avda. Niza, nº 12	03540	Playa de San Juan	965151944	38.3704	-0.410576	sanjuan.33@es.mcd.com	Alicante/Alacant	A	true	false	false	false	false	false	B63266274	FRASAMARAL S.L.		Terraza|Ticket|Delivery|Descuento familias numerosas|Para llevar	true	12:00-23:00	12:00-00:00	12:00-23:00	12:00-00:00	false	false	false	false	false	false	false	false	false	false	false
167	San Juan Cines	Ctra. Nacional 332, Km.114,75	03550	San Juan de Alicante	965654749	38.3983	-0.42884	sanjuancines.167@es.mcd.com	Alicante/Alacant	A	true	false	false	false	965654749	sanjuancines.167@es.mcd.com	B 26353177	ALC HOSTELERIA S.L.	Avd.  Universidad  s/n 03009 Alicante	Parking|Terraza|Minusválidos|Ticket|Delivery|Descuento familias numerosas|Para llevar|Cumpleaños en casa	true	11:00-23:00	11:00-23:00	11:00-23:00	11:00-23:00	false	false	false	false	false	false	false	false	false	false	
410	SANTA POLA	Carretera de Elche, nº 9	03130	Santa Pola	965411864	38.1971	-0.563201		Alicante/Alacant	A	true	false	false	false	false	false	B-42550392	PANTIN INVESTMENTS, S.L		McAuto|Parking|Terraza|Servicio a mesa|Signature|Minusválidos|Ticket|Delivery|Descuento familias numerosas|Para llevar	true	12:00-00:00	12:00-00:00	12:00-00:00	12:00-00:00	false	false	false	false	false	true	12:00-00:00	12:00-00:00	12:00-00:00	12:00-00:00	no
403	McDONALDS ELCHE NORTE	Ctra. N-340 Alicante a Murcia | Sector E-25 | Pol. Ind. Altabix	03203	Elche	966614414	38.2728	-0.668774		Alicante/Alacant	A	true	false	false	false	false	false	B-15802002	Galdana Restaurantes S.L.U		McAuto|Parking|Terraza|Servicio a mesa|Minusválidos|Ticket|Delivery|Descuento familias numerosas|Para llevar	true	12:00-22:00	12:00-22:00	12:00-22:00	12:00-22:00	false	false	false	false	false	true	12:00-22:00	12:00-22:00	12:00-22:00	12:00-22:00	
415	EROSKI	Centro Comercial Aljub | C/ Jacarilla, s/n - Locales 10-11	03205	Elche	965460512	38.2639837	-0.7203199	elcheeroski.415@es.mcd.com	Alicante/Alacant	A	true	false	false	false	false	false	B15802002	Galdana restaurantes S.L.U	null	McCafé|Desayunos|Parking|Signature|Minusválidos|Cumpleaños|Ticket|Delivery|Descuento familias numerosas	true	13:00-22:00	13:00-22:00	13:00-22:00	13:00-22:00	false	false	false	false	false	false	false	false	false	false	
197	Petrer-Elda	Avenida del Guirney, nº 8	03610	Petrer	966951864	38.4891	-0.777316		Alicante/Alacant	A	true	false	false	false	false	false				McAuto|McCafé|Desayunos|Parking|Terraza|Servicio a mesa|Signature|Minusválidos|Delivery|Descuento familias numerosas|Para llevar	true	09:00-00:00	09:00-00:00	09:00-00:00	09:00-00:00	false	false	false	false	false	true	09:00-00:00	09:00-01:30	09:00-00:30	09:00-01:30	
28	Benidorm	Plaza de la Hispanidad, nº3	03503	Benidorm	965867513	38.5376	-0.126336	benidorm.28@es.mcd.com	Alicante/Alacant	A	true	false	false	false	false	false				Terraza|Delivery|Para llevar	true	12:00-23:00	12:00-23:00	12:00-23:00	12:00-23:00	false	false	false	false	false	false	false	false	false	false	false
283	Benidorm Playa	Avda. Madrid, nº 33 | Edificio Almadraba Local 1 | Rincón de Loix	03503	Benidorm	966831547	38.5331	-0.107433	benidormplaya.283@es.mcd.com	Alicante/Alacant	A	true	false	false	false	false	false				Terraza|Delivery|Para llevar	true	12:00-23:00	12:00-23:00	12:00-23:00	12:00-23:00	false	false	false	false	false	false	false	false	false	false	false
134	Torrevieja	Carretera Comarcal Crevillente nº 3321, | s/n, frente a C.C. Habaneras	03184	Torrevieja	966708854	37.9931	-0.688831		Alicante/Alacant	A	true	false	false	false	false	false				McAuto|McCafé|Desayunos|Parking|Terraza|Servicio a mesa|Signature|Minusválidos|Delivery|Descuento familias numerosas|24H|Para llevar	true	08:00-00:00	08:00-00:00	08:00-00:00	08:00-00:00	false	false	false	false	false	true	00:00-00:00	00:00-00:00	00:00-00:00	00:00-00:00	all
284	Alfaz del Pí	Ctra. N-332 con Avd. Albir	03580	Alfaz del Pí	966868045	38.5753	-0.078688		Alicante/Alacant	A	true	false	false	false	false	false				McAuto|Parking|Terraza|Delivery|Para llevar	true	12:00-23:00	12:00-23:00	12:00-23:00	12:00-23:00	false	false	false	false	false	true	12:00-23:00	12:00-23:00	12:00-23:00	12:00-23:00	
465	San Javier	Centro Comercial Dos Mares | Salida 777, AP-7 | Local A-16, 1ª Planta	30730	San Javier	968547398	37.8206	-0.81255	sanjavier.465@es.mcd.com	Murcia	MU	true	false	false	false	false	false				Parking|Terraza|Minusválidos|Descuento familias numerosas|Para llevar	true	12:00-22:30	12:00-23:00	12:00-22:30	12:00-23:00	false	false	false	false	false	false	false	false	false	false	false
455	McDonald's Nueva Condomina	Centro Comercial Nueva Condomina | Poligono Nueva Condomina, Local A 27-28 | Ctra. A-7, Km 760	30110	Cabezo de Torres	968813450	38.0408	-1.1489	nuevacondomina.455@es.mcd.com	Murcia	MU	true	false	false	false	958813450	Nuevacondomina.455@es.mcd.com	B01185123	Resbat, s.l.	Autovía a7 km 760 30110 Murcia	Parking|Terraza|Signature|Minusválidos|Cumpleaños|Descuento familias numerosas|Para llevar|Cumpleaños en casa	true	11:00-23:00	11:00-23:00	00:00-00:00	11:00-23:00	false	false	false	false	false	false	false	false	false	false	
430	Murcia Infantes	Centro Comercial Eroski Infante | Avda. Lope de Vega, s/n	30011	Murcia	968254233	37.9816	-1.11288	murciainfantes.430@es.mcd.com	Murcia	MU	true	false	false	false	968254233	murciainfantes.430@es.mcd.com	B73354334	Infantes de Servicios Rapidos	Avenida del Rocio, 16, 2ºD	McAuto|McCafé|Parking|Terraza|Servicio a mesa|Minusválidos|Delivery|Descuento familias numerosas|Para llevar|Cumpleaños en casa	true	10:00-00:30	10:00-01:00	10:00-01:00	10:00-01:00	false	false	false	false	false	true	10:00-00:30	10:00-01:00	10:00-01:00	10:00-01:00	
413	Molina de Segura	Centro Comercial Eroski | Ctra. Madrid-Cartagena, s/n | Pol. Ind. "El Tapiado"	30500	Molina de Segura	968645870	38.0644	-1.21961	molinadesegura.413@es.mcd.com	Murcia	MU	true	false	false	false	968645870	molinadesegura.413@es.mcd.com	B73215451	Del Molino de Servicios Rapidos SL	Avenida del Rocio, 16, 2ºD	McAuto|McCafé|Parking|Terraza|Servicio a mesa|Minusválidos|Delivery|Descuento familias numerosas|Para llevar|Cumpleaños en casa	true	10:00-00:00	10:00-01:00	10:00-00:00	10:00-01:00	false	false	false	false	false	true	10:00-00:00	10:00-01:00	10:00-00:00	10:00-01:00	
191	Denia	Avda. Negreals, nº 13 | Ctra. Denia a Ondara	03700	Denia	966430513	38.839	0.095204		Alicante/Alacant	A	true	false	false	false	false	false				McAuto|McCafé|Play Place|Parking|Terraza|Servicio a mesa|Signature|Minusválidos|Delivery	true	12:00-00:00	12:00-00:00	12:00-00:00	12:00-00:00	false	false	false	false	false	true	12:00-00:00	12:00-01:00	12:00-00:00	12:00-01:00	false
346	McDonald's Gandia 	Avda. Blasco Ibañez, nº 4	46701	Gandía	962876063	38.9718	-0.169562		Valencia/València	V	true	false	false	false	false	false	B97072565	Nine Divine SLU		McAuto|McCafé|Play Place|Desayunos|Parking|Terraza|Servicio a mesa|Minusválidos|Cumpleaños|Ticket|Delivery|Descuento familias numerosas|Para llevar	true	11:00-23:00	11:00-23:00	11:00-23:00	11:00-23:00	false	false	false	false	false	true	11:00-00:00	11:00-00:00	11:00-00:00	11:00-00:00	
261	Javea	José Espronceda, 2	03730	Jávea	965794850	38.7883	0.172565		Alicante/Alacant	A	true	false	false	false	false	false				McAuto|McCafé|Play Place|Parking|Terraza|Servicio a mesa|Signature|Delivery	true	12:00-00:00	12:00-00:00	12:00-00:00	12:00-00:00	false	false	false	false	false	true	12:00-00:00	12:00-01:00	12:00-00:00	12:00-01:00	false
462	Cartagena Espacio	Centro Comercial Espacio Mediterraneo | C/ Londres, s/n - Local 2.03 | Polígono Industrial Cabezo Beaza	30395	Cartagena	968197301	37.6263	-0.950353	espaciomediterraneo.462@es.mcd.com	Murcia	MU	true	false	false	false	false	false				McCafé|Desayunos|Parking|Terraza|Signature|Minusválidos|Descuento familias numerosas|Para llevar	true	11:00-23:00	11:00-23:30	11:00-23:00	11:00-23:30	false	false	false	false	false	false	false	false	false	false	false
217	Alzira	Centro Comercial Carrefour | Ctra. de Albalat, s/n	46600	Alzira	962405100	39.1619	-0.430071	administración@millamcd.com	Valencia/València	V	true	false	false	false	false	false				McAuto|McCafé|Parking|Terraza|Signature|Minusválidos|Delivery|Descuento familias numerosas|Para llevar	true	11:00-23:00	11:00-00:00	12:00-23:30	12:00-23:30	false	false	false	false	false	true	11:00-23:30	11:00-00:30	12:00-00:00	12:00-00:00	false
323	McDonald's Cullera	Centro Comercial Carrefour Cullera | PRM 3	46400	Cullera	961738091	39.1792	-0.262077		Valencia/València	V	true	false	false	false	false	false	B98542996	Restaurante GreenFree		McAuto|McCafé|Play Place|Desayunos|Parking|Terraza|Minusválidos|Cumpleaños|Ticket|Delivery|Descuento familias numerosas|Para llevar	true	11:00-23:00	11:00-23:00	11:00-23:00	11:00-23:00	false	false	false	false	false	true	11:00-00:00	11:00-00:00	11:00-00:00	11:00-00:00	false
510	Cartagena Mandarache	Centro Comercial Mandarache | C/ Ronda Ciudad de la Union, s/n | Parcela 1	30204	Cartagena	968517176	37.617	-0.98391		Murcia	MU	true	false	false	false	false	false				McAuto|Parking|Signature|Delivery|Descuento familias numerosas|Para llevar	true	12:00-01:00	12:00-01:00	12:00-01:00	12:00-01:00	false	false	false	false	false	true	12:00-01:00	12:00-03:00	12:00-01:00	12:00-03:00	false
691	Cartagena Juan Carlos I	Avenida Juan Carlos I, nº 85	30310	Cartagena	968513668	37.629232	-1.002944	cartagenajuancarlosi.691@es.mcd.com	Murcia	MU	true	false	false	false	false	false				McAuto|Parking|Terraza|Minusválidos|Delivery|Descuento familias numerosas|Para llevar	true	12:00-01:00	12:00-01:00	12:00-01:00	12:00-01:00	false	false	false	false	false	true	12:00-01:00	12:00-02:00	12:00-01:00	12:00-02:00	false
462	Cartagena Espacio	Centro Comercial Espacio Mediterraneo | C/ Londres, s/n - Local 2.03 | Polígono Industrial Cabezo Beaza	30395	Cartagena	968197301	37.6263	-0.950353	espaciomediterraneo.462@es.mcd.com	Murcia	MU	true	false	false	false	false	false				McCafé|Desayunos|Parking|Terraza|Signature|Minusválidos|Descuento familias numerosas|Para llevar	true	11:00-23:00	11:00-23:30	11:00-23:00	11:00-23:30	false	false	false	false	false	false	false	false	false	false	false
465	San Javier	Centro Comercial Dos Mares | Salida 777, AP-7 | Local A-16, 1ª Planta	30730	San Javier	968547398	37.8206	-0.81255	sanjavier.465@es.mcd.com	Murcia	MU	true	false	false	false	false	false				Parking|Terraza|Minusválidos|Descuento familias numerosas|Para llevar	true	12:00-22:30	12:00-23:00	12:00-22:30	12:00-23:00	false	false	false	false	false	false	false	false	false	false	false
430	Murcia Infantes	Centro Comercial Eroski Infante | Avda. Lope de Vega, s/n	30011	Murcia	968254233	37.9816	-1.11288	murciainfantes.430@es.mcd.com	Murcia	MU	true	false	false	false	968254233	murciainfantes.430@es.mcd.com	B73354334	Infantes de Servicios Rapidos	Avenida del Rocio, 16, 2ºD	McAuto|McCafé|Parking|Terraza|Servicio a mesa|Minusválidos|Delivery|Descuento familias numerosas|Para llevar|Cumpleaños en casa	true	10:00-00:30	10:00-01:00	10:00-01:00	10:00-01:00	false	false	false	false	false	true	10:00-00:30	10:00-01:00	10:00-01:00	10:00-01:00	
494	Alcantarilla	Poligono Comercial Oeste | Autovia MU-30 | Alcantarilla-El Palmar	30835	Sangonera La Seca	968818194	37.9565	-1.217	alcantarilla.494@es.mcd.com	Murcia	MU	true	false	false	false	968818194	alcantarilla.494@es.mcd.com	B73640112	Alcantarilla de Servicios Rapidos 	Avenida del Rocio, 16, 2ºD	McAuto|McCafé|Parking|Terraza|Servicio a mesa|Minusválidos|Delivery|Descuento familias numerosas|Para llevar|Cumpleaños en casa	true	10:00-00:00	10:00-01:00	10:00-00:00	10:00-01:00	false	false	false	false	false	true	10:00-00:00	10:00-01:00	10:00-00:00	10:00-01:00	
